{"type":"FeatureCollection","features":[{"type":"Feature","geometry":{"type":"Point","coordinates":[2.330048,48.824489]},"properties":{"id":"geoapify/5102db1c42f0a3024059f63581d888694840f00103f901a94d1a600200000092030d4d6173616d756e6520446f6a6f","name":"Masamune Dojo","shop":"martial_arts","address":{"housenumber":"11","street":"Rue Henri Regnault","postcode":"75014","city":"Paris"}}},{"type":"Feature","geometry":{"type":"Point","coordinates":[2.321255,48.81528]},"properties":{"id":"geoapify/51095c0d3fee91024059dd4bd0155b684840f00103f9017115973501000000920311446f6a6f2048656e72692047696e6f7578","name":"Dojo Henri Ginoux","shop":"martial_arts","address":{"housenumber":"91","street":"Avenue Henri Ginoux","postcode":"92120","city":"Montrouge"}}},{"type":"Feature","geometry":{"type":"Point","coordinates":[2.433752,48.857193]},"properties":{"id":"geoapify/51119260055378034059c5afb37cb86d4840f00103f901b746fa5b0100000092032e41636164c3a96d6965204c6565204b77616e20596f756e6720417274204d6172746961757820436f72c3a9656e73","name":"Académie Lee Kwan Young Art Martiaux Coréens","shop":"martial_arts","address":{"housenumber":"19a","street":"Rue Girard","postcode":"93100","city":"Montreuil"}}},{"type":"Feature","geometry":{"type":"Point","coordinates":[2.294585,48.841952]},"properties":{"id":"geoapify/51252367614f5b0240594e68ed11c56b4840f00103f9011d45f39d0200000092030c4f6b696e61776120646f6a6f","name":"Okinawa dojo","shop":"martial_arts","address":{"housenumber":"25","street":"Rue de l'Abbé Groult","postcode":"75015","city":"Paris"}}},{"type":"Feature","geometry":{"type":"Point","coordinates":[2.399445,48.869748]},"properties":{"id":"geoapify/512d61c84510320340598e23d6e2536f4840f00103f9014eaa36c30000000092031d446f6a6f2dc3a9636f6c65206465206c2765737420706172697369656e","name":"Dojo-école de l'est parisien","shop":"martial_arts","address":{"street":"Rue Pelleport","postcode":"75020","city":"Paris"}}},{"type":"Feature","geometry":{"type":"Point","coordinates":[2.354913,48.870966]},"properties":{"id":"geoapify/513660ebaddcd6024059f07508d27b6f4840f00103f9012700900d0300000092030654656e636869","name":"Tenchi","shop":"martial_arts","address":{"street":"Passage de l'Industrie","postcode":"75010","city":"Paris"}}},{"type":"Feature","geometry":{"type":"Point","coordinates":[2.378266,48.892601]},"properties":{"id":"geoapify/513b89ad45b006034059682f91c140724840f00103f901f62eb70d03000000920306536163616d70","name":"Sacamp","shop":"martial_arts","address":{"housenumber":"75","street":"Rue de l'Ourcq","postcode":"75019","city":"Paris"}}},{"type":"Feature","geometry":{"type":"Point","coordinates":[2.452054,48.831106]},"properties":{"id":"geoapify/514f498c54ce9d03405941e257ac616a4840f00102f901338cbe030000000092031f436f6d706c657865204d617269652d5468c3a972c3a873652045797175656d","name":"Complexe Marie-Thérèse Eyquem","shop":"martial_arts","address":{"street":"Route de la Pyramide","postcode":"75012","city":"Paris"}}},{"type":"Feature","geometry":{"type":"Point","coordinates":[2.351865,48.825774]},"properties":{"id":"geoapify/5150ef98709ed0024059b6700ff8b2694840f00103f901b239c6930100000092030c4e52464947485420436c7562","name":"NRFIGHT Club","shop":"martial_arts","address":{"housenumber":"185","street":"Rue de Tolbiac","postcode":"75013","city":"Paris"}}},{"type":"Feature","geometry":{"type":"Point","coordinates":[2.391945,48.873036]},"properties":{"id":"geoapify/5151a5660fb422034059d91b21a8bf6f4840f00103f9012d04e4d700000000920313496e73746974757420456c204d6172686f6d79","name":"Institut El Marhomy","shop":"martial_arts","address":{"street":"Rue des Rigoles","postcode":"75020","city":"Paris"}}},{"type":"Feature","geometry":{"type":"Point","coordinates":[2.397038,48.832003]},"properties":{"id":"geoapify/5154138e6a222d034059ef97aa0f7f6a4840f00103f9016320fa7f0200000092031d436c75622053706f72746966206465205061726973205375642d457374","name":"Club Sportif de Paris Sud-Est","shop":"martial_arts","address":{"housenumber":"330 bis","street":"Rue de Charenton","postcode":"75012","city":"Paris"}}},{"type":"Feature","geometry":{"type":"Point","coordinates":[2.389068,48.83946]},"properties":{"id":"geoapify/51544843d7cf1c03405900e6b56d736b4840f00103f9012fd4a54a0000000092030a4e69686f6e20446f6a6f","name":"Nihon Dojo","shop":"martial_arts","address":{"street":"Rue de Charenton","postcode":"75012","city":"Paris"}}},{"type":"Feature","geometry":{"type":"Point","coordinates":[2.375154,48.861732]},"properties":{"id":"geoapify/516cb587bd500003405902f797384d6e4840f00103f90123bb15f300000000920313446f6a6f205361696e742d416d62726f697365","name":"Dojo Saint-Ambroise","shop":"martial_arts","address":{"housenumber":"6","street":"Rue de la Folie-Méricourt","postcode":"75011","city":"Paris"}}},{"type":"Feature","geometry":{"type":"Point","coordinates":[2.289087,48.833464]},"properties":{"id":"geoapify/5171a47dbd0c50024059ac3022f6ae6a4840f00103f901e91b819d0200000092031647726163696520426172726120566175676972617264","name":"Gracie Barra Vaugirard","shop":"martial_arts","address":{"housenumber":"374","street":"Rue de Vaugirard","postcode":"75015","city":"Paris"}}},{"type":"Feature","geometry":{"type":"Point","coordinates":[2.327945,48.834644]},"properties":{"id":"geoapify/519b0aa7bba19f02405969e8fa99d56a4840f00103f901365326570200000092030d436c7562204461677565727265","name":"Club Daguerre","shop":"martial_arts","address":{"street":"Rue Daguerre","postcode":"75014","city":"Paris"}}},{"type":"Feature","geometry":{"type":"Point","coordinates":[2.383628,48.816459]},"properties":{"id":"geoapify/519ca38e8eab1103405947054eb681684840f00103f90168e0b9420200000092031d46616e6c696e67202d2041636164c3a96d6965206465204b756e676675","name":"Fanling - Académie de Kungfu","shop":"martial_arts","address":{"housenumber":"29","street":"Rue Ledru-Rollin","postcode":"94200","city":"Ivry-sur-Seine"}}},{"type":"Feature","geometry":{"type":"Point","coordinates":[2.438452,48.848795]},"properties":{"id":"geoapify/51a20e2bdcf28103405952c2024ea56c4840f00103f90104c343610100000092030e436572636c652054697373696572","name":"Cercle Tissier","shop":"martial_arts","address":{"housenumber":"108","street":"Rue de Fontenay","postcode":"94300","city":"Vincennes"}}},{"type":"Feature","geometry":{"type":"Point","coordinates":[2.350835,48.849143]},"properties":{"id":"geoapify/51abf7cc717fce024059f94815d2b06c4840f00101f901f8a6dc0000000000920306444f4a4f2035","name":"DOJO 5","shop":"martial_arts","address":{"housenumber":"26","street":"Rue de Pontoise","postcode":"75005","city":"Paris"}}},{"type":"Feature","geometry":{"type":"Point","coordinates":[2.323396,48.885583]},"properties":{"id":"geoapify/51ad48f1965096024059ccb2ccc75a714840f00103f90165725404020000009203094b6174616e27617274","name":"Katan'art","shop":"martial_arts","address":{"street":"Rue Nollet","postcode":"75017","city":"Paris"}}},{"type":"Feature","geometry":{"type":"Point","coordinates":[2.408201,48.852044]},"properties":{"id":"geoapify/51b99bf1c7fe43034059cea046c60f6d4840f00103f9017ebb4dd30000000092030c446f6a6f2054656e7368696e","name":"Dojo Tenshin","shop":"martial_arts","address":{"street":"Voie CB/20","postcode":"75020","city":"Paris"}}},{"type":"Feature","geometry":{"type":"Point","coordinates":[2.397708,48.853287]},"properties":{"id":"geoapify/51cfba46cb812e03405978cd5081386d4840f00103f901d732dcd30000000092031641636164c3a96d69652064652057696e67204368756e","name":"Académie de Wing Chun","shop":"martial_arts","address":{"street":"Rue des Vignoles","postcode":"75020","city":"Paris"}}},{"type":"Feature","geometry":{"type":"Point","coordinates":[2.327475,48.895446]},"properties":{"id":"geoapify/51de08e643ab9e024059c1aa7af99d724840f00103f901386b1e0f01000000920307446f6a6f20446f","name":"Dojo Do","shop":"martial_arts","address":{"street":"Rue Navier","postcode":"75017","city":"Paris"}}},{"type":"Feature","geometry":{"type":"Point","coordinates":[2.290855,48.855725]},"properties":{"id":"geoapify/51eaf81ee4ab53024059792e4267886d4840f00103f901eca3e5ae0000000092030f53616c6c6520646520436f6d626174","name":"Salle de Combat","shop":"martial_arts","address":{"street":"Rue Jean Rey","postcode":"75015","city":"Paris"}}},{"type":"Feature","geometry":{"type":"Point","coordinates":[2.386198,48.86599]},"properties":{"id":"geoapify/51ee5f47b1ee160340596c91e3c4d86e4840f00102f901761f114100000000","name":"Centre sportif des Amandiers","shop":"martial_arts","address":{"street":"Rue Louis Delgrès","postcode":"75020","city":"Paris"}}},{"type":"Feature","geometry":{"type":"Point","coordinates":[2.289738,48.883543]},"properties":{"id":"geoapify/51fe65f7e46151024059ca0c65f217714840f00103f9015fa738210100000092031a43656e7472652073706f7274696620526f676572204172627573","name":"Centre sportif Roger Arbus","shop":"martial_arts","address":{"street":"Rue Bayen","postcode":"75017","city":"Paris"}}},{"type":"Feature","geometry":{"type":"Point","coordinates":[2.372083,48.896774]},"properties":{"id":"node/10016468817","name":"UCPA Sport Station Hostel","shop":"gym","address":{"housenumber":"28","street":"Allée Rose Dieng-Kuntz","postcode":"75019"}}},{"type":"Feature","geometry":{"type":"Point","coordinates":[2.327351,48.896623]},"properties":{"id":"node/10019649517","name":"Kyudo Art et Pratique","shop":"gym","address":{"housenumber":"22","street":"Rue Jean Leclaire","postcode":"75017"}}},{"type":"Feature","geometry":{"type":"Point","coordinates":[2.325639,48.87224]},"properties":{"id":"node/10031678867","name":"Gymate","shop":"gym","address":null}},{"type":"Feature","geometry":{"type":"Point","coordinates":[2.290153,48.877655]},"properties":{"id":"node/10049022963","name":"Gotham","shop":"gym","address":null}},{"type":"Feature","geometry":{"type":"Point","coordinates":[2.373758,48.825465]},"properties":{"id":"node/10050441781","name":"Karine Doucerain","shop":"yoga","address":null}},{"type":"Feature","geometry":{"type":"Point","coordinates":[2.276045,48.86113]},"properties":{"id":"node/10050545476","name":"Studio 16","shop":"dance","address":{"housenumber":"66","street":"Rue Nicolo","postcode":"75116","city":"Paris"}}},{"type":"Feature","geometry":{"type":"Point","coordinates":[2.366914,48.833945]},"properties":{"id":"node/10084578069","name":"CrossFit","shop":"gym","address":{"housenumber":"87","street":"Boulevard Vincent Auriol","postcode":"75013","city":"Paris"}}},{"type":"Feature","geometry":{"type":"Point","coordinates":[2.332707,48.840735]},"properties":{"id":"node/10118599774","name":"Basic-Fit","shop":"gym","address":{"housenumber":"140","street":"Boulevard du Montparnasse","postcode":"75014","city":"Paris"}}},{"type":"Feature","geometry":{"type":"Point","coordinates":[2.267327,48.842101]},"properties":{"id":"node/10121827761","name":"France Boxing Club","shop":"martial_arts","address":{"housenumber":"130","street":"Avenue de Versailles","postcode":"75016","city":"Paris"}}},{"type":"Feature","geometry":{"type":"Point","coordinates":[2.321838,48.838535]},"properties":{"id":"node/10130786581","name":"John Reed","shop":"gym","address":null}},{"type":"Feature","geometry":{"type":"Point","coordinates":[2.320685,48.833931]},"properties":{"id":"node/10176219947","name":null,"shop":"gym","address":null}},{"type":"Feature","geometry":{"type":"Point","coordinates":[2.320657,48.833905]},"properties":{"id":"node/10176219948","name":null,"shop":"gym","address":null}},{"type":"Feature","geometry":{"type":"Point","coordinates":[2.320626,48.833877]},"properties":{"id":"node/10176219949","name":null,"shop":"gym","address":null}},{"type":"Feature","geometry":{"type":"Point","coordinates":[2.320714,48.833953]},"properties":{"id":"node/10176219950","name":null,"shop":"gym","address":null}},{"type":"Feature","geometry":{"type":"Point","coordinates":[2.321088,48.834261]},"properties":{"id":"node/10176219951","name":null,"shop":"gym","address":null}},{"type":"Feature","geometry":{"type":"Point","coordinates":[2.321117,48.834285]},"properties":{"id":"node/10176219952","name":null,"shop":"gym","address":null}},{"type":"Feature","geometry":{"type":"Point","coordinates":[2.321059,48.834235]},"properties":{"id":"node/10176219953","name":null,"shop":"gym","address":null}},{"type":"Feature","geometry":{"type":"Point","coordinates":[2.334238,48.876141]},"properties":{"id":"node/10227795322","name":"Bodyhit","shop":"gym","address":null}},{"type":"Feature","geometry":{"type":"Point","coordinates":[2.405639,48.861354]},"properties":{"id":"node/10250894731","name":"Les Cercles de la forme","shop":"gym","address":{"street":"Rue de Bagnolet","postcode":"75020","city":"Paris"}}},{"type":"Feature","geometry":{"type":"Point","coordinates":[2.369748,48.856739]},"properties":{"id":"node/10261401879","name":"Le cube","shop":"martial_arts","address":null}},{"type":"Feature","geometry":{"type":"Point","coordinates":[2.355285,48.833291]},"properties":{"id":"node/10280288918","name":"Bodyhit Paris 13 Place D'italie Electrostimulation","shop":"gym","address":null}},{"type":"Feature","geometry":{"type":"Point","coordinates":[2.364557,48.894322]},"properties":{"id":"node/10289828980","name":"Centre Paris Anim' Hebert","shop":"dance","address":null}},{"type":"Feature","geometry":{"type":"Point","coordinates":[2.318438,48.894493]},"properties":{"id":"node/10300535446","name":"Salles de sport Bernard Lafay","shop":"gym","address":null}},{"type":"Feature","geometry":{"type":"Point","coordinates":[2.360804,48.863376]},"properties":{"id":"node/10313025721","name":"Jacques De Molay Fitness","shop":"gym","address":null}},{"type":"Feature","geometry":{"type":"Point","coordinates":[2.408758,48.849176]},"properties":{"id":"node/10539696009","name":"Neoness","shop":"gym","address":{"housenumber":"81","street":"Rue de Lagny","postcode":"75020","city":"Paris"}}},{"type":"Feature","geometry":{"type":"Point","coordinates":[2.398106,48.872896]},"properties":{"id":"node/10611471451","name":"Gymnase Pelleport","shop":"martial_arts","address":{"housenumber":"162","street":"Rue Pelleport","postcode":"75020","city":"Paris"}}},{"type":"Feature","geometry":{"type":"Point","coordinates":[2.325727,48.880343]},"properties":{"id":"node/10623969677","name":"Nova Fitness","shop":"gym","address":null}},{"type":"Feature","geometry":{"type":"Point","coordinates":[2.373181,48.854082]},"properties":{"id":"node/10658448610","name":"Neoness","shop":"gym","address":{"housenumber":"6","street":"Passage Louis-Philippe","postcode":"75011","city":"Paris"}}},{"type":"Feature","geometry":{"type":"Point","coordinates":[2.357199,48.868901]},"properties":{"id":"node/10689441819","name":"Homa","shop":"gym","address":null}},{"type":"Feature","geometry":{"type":"Point","coordinates":[2.326052,48.829301]},"properties":{"id":"node/10741223769","name":"Neoness","shop":"yoga","address":{"housenumber":"214","street":"Avenue du Maine","postcode":"75014","city":"Paris"}}},{"type":"Feature","geometry":{"type":"Point","coordinates":[2.380527,48.848553]},"properties":{"id":"node/10750312127","name":"Espace Crozatier","shop":"yoga","address":{"housenumber":"46","street":"Rue Crozatier","postcode":"75012","city":"Paris"}}},{"type":"Feature","geometry":{"type":"Point","coordinates":[2.344358,48.841077]},"properties":{"id":"node/10807924221","name":"Millésime","shop":"gym","address":null}},{"type":"Feature","geometry":{"type":"Point","coordinates":[2.299385,48.835457]},"properties":{"id":"node/10879257125","name":"QEE yoga & pilates","shop":"gym","address":null}},{"type":"Feature","geometry":{"type":"Point","coordinates":[2.352636,48.869257]},"properties":{"id":"node/10883956705","name":"Bodytech Center","shop":"gym","address":{"housenumber":"250","street":"Rue Saint-Denis"}}},{"type":"Feature","geometry":{"type":"Point","coordinates":[2.330114,48.850735]},"properties":{"id":"node/10922894882","name":"Kurv","shop":"gym","address":null}},{"type":"Feature","geometry":{"type":"Point","coordinates":[2.328944,48.847743]},"properties":{"id":"node/10946220825","name":"Allsteps","shop":"gym","address":null}},{"type":"Feature","geometry":{"type":"Point","coordinates":[2.377226,48.858335]},"properties":{"id":"node/10976553569","name":"Mu:v","shop":"yoga","address":{"housenumber":"6","street":"Passage Lisa","postcode":"75011","city":"Paris"}}},{"type":"Feature","geometry":{"type":"Point","coordinates":[2.388342,48.852663]},"properties":{"id":"node/11011989585","name":"Episod","shop":"yoga","address":{"housenumber":"226","street":"Boulevard Voltaire","postcode":"75011","city":"Paris"}}},{"type":"Feature","geometry":{"type":"Point","coordinates":[2.353873,48.862956]},"properties":{"id":"node/11061473311","name":"LWS Pak Mei","shop":"martial_arts","address":{"housenumber":"12","street":"Rue du Grenier Saint-Lazare","postcode":"75003","city":"Paris"}}},{"type":"Feature","geometry":{"type":"Point","coordinates":[2.370589,48.847796]},"properties":{"id":"node/11162412436","name":"Climbing District Bastille","shop":"climbing","address":{"housenumber":"37","street":"Avenue Ledru-Rollin","postcode":"75012","city":"Paris"}}},{"type":"Feature","geometry":{"type":"Point","coordinates":[2.311574,48.885739]},"properties":{"id":"node/11170036126","name":"Sporting Fitness Club","shop":"gym","address":null}},{"type":"Feature","geometry":{"type":"Point","coordinates":[2.319358,48.892422]},"properties":{"id":"node/11201888263","name":"HEGO CrossFit Batignolles","shop":"gym","address":{"housenumber":"18","street":"Rue Pouchet","postcode":"75017","city":"Paris"}}},{"type":"Feature","geometry":{"type":"Point","coordinates":[2.375709,48.858348]},"properties":{"id":"node/11207324517","name":"CrossFit Original Addicts","shop":"gym","address":{"housenumber":"37","street":"Rue Bréguet","postcode":"75011","city":"Paris"}}},{"type":"Feature","geometry":{"type":"Point","coordinates":[2.331972,48.875296]},"properties":{"id":"node/11209627621","name":"Le Labo by OmegaWorkout","shop":"gym","address":{"housenumber":"45","street":"Rue de la Chaussée d'Antin","postcode":"75009","city":"Paris"}}},{"type":"Feature","geometry":{"type":"Point","coordinates":[2.309054,48.884272]},"properties":{"id":"node/11212318408","name":"Yay Yoga And You","shop":"yoga","address":null}},{"type":"Feature","geometry":{"type":"Point","coordinates":[2.316562,48.883747]},"properties":{"id":"node/11219828081","name":"Studio Rising","shop":"gym","address":null}},{"type":"Feature","geometry":{"type":"Point","coordinates":[2.293434,48.838448]},"properties":{"id":"node/11251221364","name":"O Ben Training","shop":"gym","address":null}},{"type":"Feature","geometry":{"type":"Point","coordinates":[2.3157,48.884576]},"properties":{"id":"node/11258114040","name":"MyBigBang","shop":"gym","address":null}},{"type":"Feature","geometry":{"type":"Point","coordinates":[2.351367,48.873618]},"properties":{"id":"node/11264714280","name":"Drip","shop":"gym","address":null}},{"type":"Feature","geometry":{"type":"Point","coordinates":[2.285967,48.86642]},"properties":{"id":"node/11268657566","name":"Burning Bar - Hot Pilates","shop":"yoga","address":{"housenumber":"42","street":"Avenue Raymond Poincaré","postcode":"75016","city":"Paris"}}},{"type":"Feature","geometry":{"type":"Point","coordinates":[2.333085,48.886871]},"properties":{"id":"node/11279574390","name":"Arkose Montmartre","shop":"climbing","address":{"housenumber":"16 bis","street":"Rue Caulaincourt","postcode":"75018","city":"Paris"}}},{"type":"Feature","geometry":{"type":"Point","coordinates":[2.328503,48.843908]},"properties":{"id":"node/11349888533","name":"Yoga Raspail","shop":"yoga","address":null}},{"type":"Feature","geometry":{"type":"Point","coordinates":[2.358045,48.848343]},"properties":{"id":"node/11356562877","name":"centre sportif Jean Talbot","shop":"yoga","address":{"street":"Quai Saint-Bernard","postcode":"75005","city":"Paris"}}},{"type":"Feature","geometry":{"type":"Point","coordinates":[2.325181,48.850047]},"properties":{"id":"node/11489116226","name":"dynamo","shop":"gym","address":null}},{"type":"Feature","geometry":{"type":"Point","coordinates":[2.368416,48.871141]},"properties":{"id":"node/11496861914","name":"KAH Studio","shop":"gym","address":null}},{"type":"Feature","geometry":{"type":"Point","coordinates":[2.351414,48.862659]},"properties":{"id":"node/11556766513","name":"Barreshape","shop":"dance","address":null}},{"type":"Feature","geometry":{"type":"Point","coordinates":[2.350811,48.861534]},"properties":{"id":"node/11556942175","name":"Decibel","shop":"dance","address":null}},{"type":"Feature","geometry":{"type":"Point","coordinates":[2.347152,48.879657]},"properties":{"id":"node/11580004122","name":"JCore Training","shop":"gym","address":null}},{"type":"Feature","geometry":{"type":"Point","coordinates":[2.316993,48.886555]},"properties":{"id":"node/11737676075","name":"Reformer Pilates","shop":"gym","address":null}},{"type":"Feature","geometry":{"type":"Point","coordinates":[2.326911,48.854087]},"properties":{"id":"node/11755460283","name":"Body Hit","shop":"gym","address":null}},{"type":"Feature","geometry":{"type":"Point","coordinates":[2.373161,48.856942]},"properties":{"id":"node/11861571969","name":"Basic-Fit","shop":"gym","address":{"housenumber":"6","street":"Rue Froment","postcode":"75011","city":"Paris"}}},{"type":"Feature","geometry":{"type":"Point","coordinates":[2.309384,48.826555]},"properties":{"id":"node/11877674628","name":"Do Sport","shop":"gym","address":null}},{"type":"Feature","geometry":{"type":"Point","coordinates":[2.329899,48.83016]},"properties":{"id":"node/11914631800","name":"Cercle des Arts Martiaux","shop":"martial_arts","address":null}},{"type":"Feature","geometry":{"type":"Point","coordinates":[2.36136,48.855848]},"properties":{"id":"node/11988042627","name":"The New Me","shop":"gym","address":null}},{"type":"Feature","geometry":{"type":"Point","coordinates":[2.301359,48.838171]},"properties":{"id":"node/12124098329","name":"Atelier du quartier","shop":"dance","address":null}},{"type":"Feature","geometry":{"type":"Point","coordinates":[2.39822,48.834033]},"properties":{"id":"node/12145889301","name":"Boxing club Paris 12","shop":"gym","address":{"housenumber":"16","street":"Rue des Meuniers","postcode":"75012"}}},{"type":"Feature","geometry":{"type":"Point","coordinates":[2.298732,48.842518]},"properties":{"id":"node/12150060687","name":"L'atelier du quartier le 12","shop":"dance","address":null}},{"type":"Feature","geometry":{"type":"Point","coordinates":[2.353571,48.848328]},"properties":{"id":"node/12188738601","name":"Heartspot","shop":"yoga","address":null}},{"type":"Feature","geometry":{"type":"Point","coordinates":[2.34713,48.877794]},"properties":{"id":"node/12193983534","name":"Prises d'escalade au mur dans la rue sous le pont","shop":"climbing","address":null}},{"type":"Feature","geometry":{"type":"Point","coordinates":[2.260912,48.845158]},"properties":{"id":"node/1225227328","name":"Body Hit","shop":"gym","address":null}},{"type":"Feature","geometry":{"type":"Point","coordinates":[2.26038,48.844957]},"properties":{"id":"node/1225227335","name":"Studio 3C","shop":"gym","address":null}},{"type":"Feature","geometry":{"type":"Point","coordinates":[2.307496,48.841622]},"properties":{"id":"node/12258277242","name":"Danse Volontaire","shop":"dance","address":{"housenumber":"198","street":"Rue de Vaugirard","postcode":"75015","city":"Paris"}}},{"type":"Feature","geometry":{"type":"Point","coordinates":[2.329226,48.891054]},"properties":{"id":"node/12293997881","name":"Skarbowsky - boxe thai","shop":"gym","address":null}},{"type":"Feature","geometry":{"type":"Point","coordinates":[2.382817,48.843935]},"properties":{"id":"node/12323846363","name":"easyGym Paris Daumesnil","shop":"gym","address":null}},{"type":"Feature","geometry":{"type":"Point","coordinates":[2.300819,48.841101]},"properties":{"id":"node/12395981276","name":"L'atelier du quartier Le 92","shop":"dance","address":null}},{"type":"Feature","geometry":{"type":"Point","coordinates":[2.338262,48.818849]},"properties":{"id":"node/12469483088","name":null,"shop":"gym","address":null}},{"type":"Feature","geometry":{"type":"Point","coordinates":[2.401001,48.8507]},"properties":{"id":"node/12559387701","name":"Paris Danse Salon","shop":"gym","address":{"housenumber":"26","street":"Rue des Grands Champs","postcode":"75020","city":"Paris"}}},{"type":"Feature","geometry":{"type":"Point","coordinates":[2.344567,48.884921]},"properties":{"id":"node/12621039714","name":null,"shop":"dance","address":null}},{"type":"Feature","geometry":{"type":"Point","coordinates":[2.280246,48.842853]},"properties":{"id":"node/12641125320","name":"KeepCool","shop":"gym","address":{"housenumber":"59","street":"Rue Gutenberg","postcode":"75015","city":"Paris"}}},{"type":"Feature","geometry":{"type":"Point","coordinates":[2.350432,48.875335]},"properties":{"id":"node/12647819650","name":"Cours Duffau","shop":"dance","address":null}},{"type":"Feature","geometry":{"type":"Point","coordinates":[2.26954,48.84769]},"properties":{"id":"node/12714790501","name":"Circle Club Paris 16 Auteuil","shop":"gym","address":{"housenumber":"57 bis","street":"Avenue Théophile Gautier","postcode":"75016","city":"Paris"}}},{"type":"Feature","geometry":{"type":"Point","coordinates":[2.321049,48.830004]},"properties":{"id":"node/12718912597","name":"La Salle du Temps","shop":"gym","address":null}},{"type":"Feature","geometry":{"type":"Point","coordinates":[2.324014,48.84511]},"properties":{"id":"node/12784758363","name":"Must Institute","shop":"gym","address":null}},{"type":"Feature","geometry":{"type":"Point","coordinates":[2.340443,48.864446]},"properties":{"id":"node/12794835859","name":"Ráfaga Studios","shop":"pilates","address":null}},{"type":"Feature","geometry":{"type":"Point","coordinates":[2.389691,48.87564]},"properties":{"id":"node/12854033356","name":"Chen","shop":"gym","address":null}},{"type":"Feature","geometry":{"type":"Point","coordinates":[2.390868,48.879973]},"properties":{"id":"node/12854033358","name":"Nrgym Pilates","shop":"gym","address":null}},{"type":"Feature","geometry":{"type":"Point","coordinates":[2.368199,48.866187]},"properties":{"id":"node/1292131470","name":"Kiwill - Spinning","shop":"gym","address":{"housenumber":"27","street":"Rue du Grand Prieuré","postcode":"75011","city":"Paris"}}},{"type":"Feature","geometry":{"type":"Point","coordinates":[2.34864,48.864994]},"properties":{"id":"node/12933141370","name":"Baba","shop":"yoga","address":{"housenumber":"10","street":"Rue Dussoubs"}}},{"type":"Feature","geometry":{"type":"Point","coordinates":[2.306112,48.844559]},"properties":{"id":"node/12956637374","name":"Climbing District Sèvres-Lecourbe","shop":"climbing","address":{"housenumber":"27","street":"Rue François Bonvin","postcode":"75015","city":"Paris"}}},{"type":"Feature","geometry":{"type":"Point","coordinates":[2.373267,48.865345]},"properties":{"id":"node/12964149143","name":"Ashtanga Yoga Paris","shop":"yoga","address":{"housenumber":"40","street":"Avenue de la République","postcode":"75011","city":"Paris"}}},{"type":"Feature","geometry":{"type":"Point","coordinates":[2.299654,48.839092]},"properties":{"id":"node/12993905842","name":"The new me","shop":"pilates","address":{"housenumber":"274","street":"Rue de Vaugirard","postcode":"75015","city":"Paris"}}},{"type":"Feature","geometry":{"type":"Point","coordinates":[2.269272,48.851449]},"properties":{"id":"node/13017486657","name":"Basic-Fit","shop":"gym","address":{"housenumber":"27-29","street":"Rue Ribera","postcode":"75016","city":"Paris"}}},{"type":"Feature","geometry":{"type":"Point","coordinates":[2.385708,48.894305]},"properties":{"id":"node/13048318994","name":"Karma","shop":"climbing","address":null}},{"type":"Feature","geometry":{"type":"Point","coordinates":[2.295445,48.883488]},"properties":{"id":"node/13050312402","name":"Studio Evolve","shop":"gym","address":null}},{"type":"Feature","geometry":{"type":"Point","coordinates":[2.262554,48.838853]},"properties":{"id":"node/13114749714","name":"Studio Listen to You","shop":"yoga","address":{"housenumber":"25","street":"Rue Claude Terrasse","postcode":"75016","city":"PARIS"}}},{"type":"Feature","geometry":{"type":"Point","coordinates":[2.357163,48.858801]},"properties":{"id":"node/13136588796","name":"10h10 Sport Club","shop":"gym","address":null}},{"type":"Feature","geometry":{"type":"Point","coordinates":[2.364678,48.880106]},"properties":{"id":"node/13229752890","name":null,"shop":"yoga","address":null}},{"type":"Feature","geometry":{"type":"Point","coordinates":[2.33129,48.879275]},"properties":{"id":"node/13233215352","name":"Blanche","shop":"gym","address":{"housenumber":"21","street":"Rue Blanche","postcode":"75009","city":"Paris"}}},{"type":"Feature","geometry":{"type":"Point","coordinates":[2.361661,48.869704]},"properties":{"id":"node/13242918628","name":"Wild Pole Studio","shop":"dance","address":null}},{"type":"Feature","geometry":{"type":"Point","coordinates":[2.271141,48.855953]},"properties":{"id":"node/13250019936","name":"The New Me Studio","shop":"pilates","address":{"housenumber":"29","street":"Avenue Mozart","postcode":"75016","city":"Paris"}}},{"type":"Feature","geometry":{"type":"Point","coordinates":[2.267241,48.851094]},"properties":{"id":"node/13267291273","name":"R15 Studio","shop":"gym","address":{"housenumber":"96","street":"Avenue Mozart","postcode":"75016","city":"Paris"}}},{"type":"Feature","geometry":{"type":"Point","coordinates":[2.261951,48.845536]},"properties":{"id":"node/13322225171","name":"L’Académie 34","shop":"pilates","address":{"housenumber":"34","street":"Rue Michel-Ange","postcode":"75016","city":"Paris"}}},{"type":"Feature","geometry":{"type":"Point","coordinates":[2.369957,48.861738]},"properties":{"id":"node/13398641195","name":"La source","shop":"gym","address":null}},{"type":"Feature","geometry":{"type":"Point","coordinates":[2.388613,48.888032]},"properties":{"id":"node/13628527316","name":"La Parisiana (Tango Milonga)","shop":"dance","address":null}},{"type":"Feature","geometry":{"type":"Point","coordinates":[2.403124,48.835764]},"properties":{"id":"node/13697674402","name":"Association Equilibre Viniyoga","shop":"yoga","address":{"housenumber":"140","street":"Rue de Picpus","postcode":"75012","city":"Paris"}}},{"type":"Feature","geometry":{"type":"Point","coordinates":[2.367204,48.854385]},"properties":{"id":"node/13859584624","name":"not yoga","shop":"yoga","address":{"housenumber":"13","street":"Rue des Tournelles","postcode":"75004","city":"Paris"}}},{"type":"Feature","geometry":{"type":"Point","coordinates":[2.340598,48.881833]},"properties":{"id":"node/13894293817","name":null,"shop":"gym","address":null}},{"type":"Feature","geometry":{"type":"Point","coordinates":[2.398748,48.831666]},"properties":{"id":"node/13902404123","name":null,"shop":"gym","address":null}},{"type":"Feature","geometry":{"type":"Point","coordinates":[2.326812,48.883788]},"properties":{"id":"node/1427038394","name":"EPISOD","shop":"gym","address":null}},{"type":"Feature","geometry":{"type":"Point","coordinates":[2.257886,48.840149]},"properties":{"id":"node/1640452952","name":"Body & Brain","shop":"yoga","address":null}},{"type":"Feature","geometry":{"type":"Point","coordinates":[2.37453,48.878906]},"properties":{"id":"node/1645331463","name":"Les Cercles de la Forme","shop":"gym","address":{"housenumber":"108","street":"Avenue Simón Bolívar","postcode":"75019","city":"Paris"}}},{"type":"Feature","geometry":{"type":"Point","coordinates":[2.367438,48.866797]},"properties":{"id":"node/1790036423","name":"Fitness Park","shop":"gym","address":{"housenumber":"5","street":"Avenue de la République","postcode":"75011","city":"Paris"}}},{"type":"Feature","geometry":{"type":"Point","coordinates":[2.328929,48.880534]},"properties":{"id":"node/1823551376","name":"Centre International de Danse Jazz I.F.P.R.O.","shop":"dance","address":null}},{"type":"Feature","geometry":{"type":"Point","coordinates":[2.33623,48.893794]},"properties":{"id":"node/1896121483","name":"Slowe","shop":"gym","address":null}},{"type":"Feature","geometry":{"type":"Point","coordinates":[2.288305,48.834484]},"properties":{"id":"node/1901202883","name":"Danse Cadix","shop":"dance","address":{"housenumber":"2","street":"Rue de Cadix","postcode":"75015","city":"Paris"}}},{"type":"Feature","geometry":{"type":"Point","coordinates":[2.399172,48.857619]},"properties":{"id":"node/1951465692","name":"Fitness Park","shop":"gym","address":{"housenumber":"65","street":"Rue de Bagnolet","postcode":"75020","city":"Paris"}}},{"type":"Feature","geometry":{"type":"Point","coordinates":[2.404298,48.855933]},"properties":{"id":"node/1980834925","name":"Milonga Tangoteka","shop":"dance","address":{"housenumber":"109","street":"rue des haies"}}},{"type":"Feature","geometry":{"type":"Point","coordinates":[2.368892,48.867758]},"properties":{"id":"node/2328496615","name":"NR Fight club","shop":"martial_arts","address":null}},{"type":"Feature","geometry":{"type":"Point","coordinates":[2.335874,48.890259]},"properties":{"id":"node/2397052959","name":"pur reformer","shop":"gym","address":{"postcode":"75018"}}},{"type":"Feature","geometry":{"type":"Point","coordinates":[2.378386,48.880393]},"properties":{"id":"node/2432302014","name":"Salle de musculation Pailleron","shop":"gym","address":null}},{"type":"Feature","geometry":{"type":"Point","coordinates":[2.328945,48.883048]},"properties":{"id":"node/2549712997","name":"La Chouette Pirouette Dorée","shop":"dance","address":null}},{"type":"Feature","geometry":{"type":"Point","coordinates":[2.32579,48.845432]},"properties":{"id":"node/2591277634","name":"CMG Sports Club","shop":"gym","address":{"housenumber":"149","street":"Rue de Rennes","postcode":"75006","city":"Paris"}}},{"type":"Feature","geometry":{"type":"Point","coordinates":[2.354598,48.828018]},"properties":{"id":"node/2591278181","name":"CMG Sports Club","shop":"gym","address":{"housenumber":"14","street":"Rue Vandrezanne","postcode":"75013","city":"Paris"}}},{"type":"Feature","geometry":{"type":"Point","coordinates":[2.365101,48.867829]},"properties":{"id":"node/2591281442","name":"Wellness","shop":"gym","address":{"housenumber":"2","street":"Rue du Faubourg du Temple","postcode":"75011","city":"Paris"}}},{"type":"Feature","geometry":{"type":"Point","coordinates":[2.27979,48.847535]},"properties":{"id":"node/2697524470","name":"Magicfit Hit","shop":"gym","address":null}},{"type":"Feature","geometry":{"type":"Point","coordinates":[2.402634,48.867586]},"properties":{"id":"node/2697748534","name":"Gymnase Bretonneau","shop":"martial_arts","address":{"housenumber":"7","street":"Rue Bretonneau","postcode":"75020","city":"Paris"}}},{"type":"Feature","geometry":{"type":"Point","coordinates":[2.305925,48.88061]},"properties":{"id":"node/2737116569","name":"CMG Sports Club","shop":"gym","address":null}},{"type":"Feature","geometry":{"type":"Point","coordinates":[2.37738,48.891565]},"properties":{"id":"node/2869388462","name":"On Air","shop":"gym","address":{"housenumber":"119","street":"Avenue de Flandre"}}},{"type":"Feature","geometry":{"type":"Point","coordinates":[2.306499,48.841289]},"properties":{"id":"node/2957565582","name":"CMG Sports Club","shop":"gym","address":null}},{"type":"Feature","geometry":{"type":"Point","coordinates":[2.397501,48.875703]},"properties":{"id":"node/2973661733","name":"Fitness Park","shop":"gym","address":{"housenumber":"247","street":"Rue de Belleville","postcode":"75019","city":"Paris"}}},{"type":"Feature","geometry":{"type":"Point","coordinates":[2.324567,48.829577]},"properties":{"id":"node/2996093212","name":"Rock 4 You","shop":"dance","address":{"housenumber":"16","street":"Rue du Moulin Vert","postcode":"75014","city":"Paris"}}},{"type":"Feature","geometry":{"type":"Point","coordinates":[2.374144,48.873208]},"properties":{"id":"node/3054057200","name":"Fight Room Belleville","shop":"martial_arts","address":null}},{"type":"Feature","geometry":{"type":"Point","coordinates":[2.36845,48.859521]},"properties":{"id":"node/3072948582","name":"Eclats de surya","shop":"yoga","address":null}},{"type":"Feature","geometry":{"type":"Point","coordinates":[2.297019,48.847119]},"properties":{"id":"node/3086267322","name":"CMG Sports Club","shop":"gym","address":null}},{"type":"Feature","geometry":{"type":"Point","coordinates":[2.329644,48.831942]},"properties":{"id":"node/3086267323","name":"CMG Sports Club","shop":"gym","address":{"housenumber":"28","street":"Avenue du Général Leclerc","postcode":"75014","city":"Paris"}}},{"type":"Feature","geometry":{"type":"Point","coordinates":[2.339825,48.861944]},"properties":{"id":"node/3086267324","name":"easyGym Paris Palais Royal","shop":"gym","address":{"street":"Rue Saint-Honoré","postcode":"75001","city":"Paris"}}},{"type":"Feature","geometry":{"type":"Point","coordinates":[2.28471,48.880576]},"properties":{"id":"node/3086267326","name":"CMG Sports Club","shop":"gym","address":null}},{"type":"Feature","geometry":{"type":"Point","coordinates":[2.398757,48.846362]},"properties":{"id":"node/3086267330","name":"CMG Sports Club","shop":"gym","address":{"housenumber":"16","street":"Rue des Colonnes du Trône","postcode":"75012","city":"Paris"}}},{"type":"Feature","geometry":{"type":"Point","coordinates":[2.259821,48.846975]},"properties":{"id":"node/3086267332","name":"Front de Seine","shop":"gym","address":{"housenumber":"11","street":"Rue Chanez","postcode":"75016","city":"Paris"}}},{"type":"Feature","geometry":{"type":"Point","coordinates":[2.290025,48.879407]},"properties":{"id":"node/3109782531","name":"Ritm - Ternes","shop":"gym","address":null}},{"type":"Feature","geometry":{"type":"Point","coordinates":[2.327969,48.876168]},"properties":{"id":"node/3126178027","name":"Les Cercles de la Forme","shop":"gym","address":{"housenumber":"94","street":"Rue Saint-Lazare","postcode":"75009","city":"Paris"}}},{"type":"Feature","geometry":{"type":"Point","coordinates":[2.368902,48.863772]},"properties":{"id":"node/3126178028","name":"Les Cercles de la Forme","shop":"gym","address":{"housenumber":"9","street":"Rue de Malte","postcode":"75011","city":"Paris"}}},{"type":"Feature","geometry":{"type":"Point","coordinates":[2.388118,48.849427]},"properties":{"id":"node/3126178830","name":"Les Cercles de la Forme","shop":"gym","address":{"housenumber":"228","street":"Rue du Faubourg Saint-Antoine","postcode":"75012","city":"Paris"}}},{"type":"Feature","geometry":{"type":"Point","coordinates":[2.274196,48.869262]},"properties":{"id":"node/3126178834","name":"Les Cercles de la Forme","shop":"gym","address":null}},{"type":"Feature","geometry":{"type":"Point","coordinates":[2.324042,48.883159]},"properties":{"id":"node/3126178835","name":"Les Cercles de la Forme","shop":"gym","address":null}},{"type":"Feature","geometry":{"type":"Point","coordinates":[2.346407,48.896521]},"properties":{"id":"node/3126178837","name":"Les Cercles de la Forme","shop":"gym","address":{"housenumber":"127","street":"Rue du Mont Cenis","postcode":"75018","city":"Paris"}}},{"type":"Feature","geometry":{"type":"Point","coordinates":[2.397836,48.866759]},"properties":{"id":"node/3280798957","name":"École de danse Kim Kan","shop":"dance","address":null}},{"type":"Feature","geometry":{"type":"Point","coordinates":[2.259438,48.837317]},"properties":{"id":"node/3284932897","name":"Best Training","shop":"gym","address":null}},{"type":"Feature","geometry":{"type":"Point","coordinates":[2.354954,48.87475]},"properties":{"id":"node/3305453871","name":"CasaYoga","shop":"yoga","address":null}},{"type":"Feature","geometry":{"type":"Point","coordinates":[2.368678,48.85627]},"properties":{"id":"node/3379306265","name":"Ruyi Studio","shop":"gym","address":{"housenumber":"34","street":"Boulevard Beaumarchais","postcode":"75011","city":"Paris"}}},{"type":"Feature","geometry":{"type":"Point","coordinates":[2.40456,48.84298]},"properties":{"id":"node/3381160533","name":null,"shop":"dance","address":null}},{"type":"Feature","geometry":{"type":"Point","coordinates":[2.400032,48.835208]},"properties":{"id":"node/3512269063","name":"Faemc","shop":"martial_arts","address":null}},{"type":"Feature","geometry":{"type":"Point","coordinates":[2.397812,48.853312]},"properties":{"id":"node/3554423513","name":"La Roulotte à Vapeur","shop":"dance","address":null}},{"type":"Feature","geometry":{"type":"Point","coordinates":[2.337433,48.831645]},"properties":{"id":"node/3655680391","name":"Le Cercle Saint-Jacques","shop":"gym","address":null}},{"type":"Feature","geometry":{"type":"Point","coordinates":[2.342424,48.875984]},"properties":{"id":"node/3668373393","name":null,"shop":"martial_arts","address":null}},{"type":"Feature","geometry":{"type":"Point","coordinates":[2.354412,48.868099]},"properties":{"id":"node/3672042540","name":"aqua by","shop":"gym","address":{"housenumber":"82","street":"Rue Notre-Dame-de-Nazareth"}}},{"type":"Feature","geometry":{"type":"Point","coordinates":[2.288864,48.868363]},"properties":{"id":"node/3688311702","name":"CFA Danse Chant Comédie","shop":"dance","address":null}},{"type":"Feature","geometry":{"type":"Point","coordinates":[2.313392,48.874915]},"properties":{"id":"node/3688334519","name":"Institut International de Danse Janine Stanlowa","shop":"dance","address":null}},{"type":"Feature","geometry":{"type":"Point","coordinates":[2.388192,48.838647]},"properties":{"id":"node/3689296452","name":"Liberty Gym","shop":"gym","address":{"housenumber":"64","street":"Boulevard de Bercy","postcode":"75012","city":"Paris"}}},{"type":"Feature","geometry":{"type":"Point","coordinates":[2.325294,48.899348]},"properties":{"id":"node/3693392625","name":null,"shop":"martial_arts","address":null}},{"type":"Feature","geometry":{"type":"Point","coordinates":[2.328155,48.870554]},"properties":{"id":"node/3770662359","name":"the new me","shop":"gym","address":null}},{"type":"Feature","geometry":{"type":"Point","coordinates":[2.381972,48.859317]},"properties":{"id":"node/3781110493","name":"Om sweet om","shop":"yoga","address":{"housenumber":"17-19","street":"Rue Camille Desmoulins","postcode":"75011"}}},{"type":"Feature","geometry":{"type":"Point","coordinates":[2.378373,48.852581]},"properties":{"id":"node/3827056665","name":"Studio de la Main d'Or","shop":"dance","address":null}},{"type":"Feature","geometry":{"type":"Point","coordinates":[2.328082,48.871931]},"properties":{"id":"node/3940340862","name":"Elancia","shop":"gym","address":{"housenumber":"33","street":"Rue de Caumartin","postcode":"75009","city":"Paris"}}},{"type":"Feature","geometry":{"type":"Point","coordinates":[2.370278,48.860481]},"properties":{"id":"node/4004690172","name":"Gymnase de la Cour des Lions","shop":"martial_arts","address":null}},{"type":"Feature","geometry":{"type":"Point","coordinates":[2.324058,48.884284]},"properties":{"id":"node/4016242321","name":"nüdiet","shop":"gym","address":null}},{"type":"Feature","geometry":{"type":"Point","coordinates":[2.323018,48.888066]},"properties":{"id":"node/4193436966","name":"Battling Club","shop":"gym","address":null}},{"type":"Feature","geometry":{"type":"Point","coordinates":[2.332175,48.869367]},"properties":{"id":"node/4198995790","name":"R2 Training Vendôme CrossFit","shop":"gym","address":{"housenumber":"6","street":"Rue Daunou","postcode":"75002","city":"Paris"}}},{"type":"Feature","geometry":{"type":"Point","coordinates":[2.279327,48.840364]},"properties":{"id":"node/4266708886","name":null,"shop":"martial_arts","address":null}},{"type":"Feature","geometry":{"type":"Point","coordinates":[2.371844,48.82486]},"properties":{"id":"node/4413754102","name":"NR Fight Club","shop":"martial_arts","address":null}},{"type":"Feature","geometry":{"type":"Point","coordinates":[2.385106,48.887302]},"properties":{"id":"node/4554150689","name":"Kikentai","shop":"gym","address":{"housenumber":"145","street":"Avenue Jean Jaurès","postcode":"75019","city":"Paris"}}},{"type":"Feature","geometry":{"type":"Point","coordinates":[2.290178,48.884508]},"properties":{"id":"node/4666702189","name":"Gracie Barra Champerret","shop":"gym","address":{"housenumber":"15","street":"Boulevard Gouvion-Saint-Cyr"}}},{"type":"Feature","geometry":{"type":"Point","coordinates":[2.332769,48.877902]},"properties":{"id":"node/4669583892","name":"Centre Paris Anim' Jacques Bravo","shop":"martial_arts","address":{"housenumber":"14-18","street":"Rue de la Tour des Dames","postcode":"75009","city":"Paris"}}},{"type":"Feature","geometry":{"type":"Point","coordinates":[2.395284,48.846068]},"properties":{"id":"node/4691027128","name":"Brume","shop":"gym","address":null}},{"type":"Feature","geometry":{"type":"Point","coordinates":[2.367994,48.856616]},"properties":{"id":"node/4951741166","name":"Surface Coaching Sportif","shop":"gym","address":{"housenumber":"43","street":"Boulevard Beaumarchais","postcode":"75003","city":"Paris"}}},{"type":"Feature","geometry":{"type":"Point","coordinates":[2.352236,48.855264]},"properties":{"id":"node/5003109332","name":null,"shop":"climbing","address":null}},{"type":"Feature","geometry":{"type":"Point","coordinates":[2.315839,48.892329]},"properties":{"id":"node/5052113392","name":"Neoness","shop":"gym","address":{"housenumber":"5","street":"Rue Bernard Buffet","postcode":"75017","city":"Paris"}}},{"type":"Feature","geometry":{"type":"Point","coordinates":[2.394291,48.870851]},"properties":{"id":"node/5154018894","name":"Juste debout school","shop":"dance","address":null}},{"type":"Feature","geometry":{"type":"Point","coordinates":[2.387986,48.838791]},"properties":{"id":"node/5193220868","name":"Team Zeitoun","shop":"martial_arts","address":null}},{"type":"Feature","geometry":{"type":"Point","coordinates":[2.376221,48.851019]},"properties":{"id":"node/530272869","name":"Les Cercles de la Forme Bastille","shop":"gym","address":{"housenumber":"80","street":"Rue Traversière","postcode":"75012","city":"Paris"}}},{"type":"Feature","geometry":{"type":"Point","coordinates":[2.344998,48.866764]},"properties":{"id":"node/5343370533","name":"The Gravity Studio","shop":"gym","address":null}},{"type":"Feature","geometry":{"type":"Point","coordinates":[2.371321,48.846318]},"properties":{"id":"node/535950232","name":"CSPSE","shop":"martial_arts","address":null}},{"type":"Feature","geometry":{"type":"Point","coordinates":[2.344493,48.86785]},"properties":{"id":"node/5381388487","name":"Kore Studio","shop":"gym","address":{"housenumber":"103","street":"Rue Réaumur"}}},{"type":"Feature","geometry":{"type":"Point","coordinates":[2.350738,48.861663]},"properties":{"id":"node/5445508333","name":"Kitten & Puppi","shop":"yoga","address":{"housenumber":"61","street":"Rue Quincampoix","postcode":"75004","city":"Paris"}}},{"type":"Feature","geometry":{"type":"Point","coordinates":[2.38212,48.84602]},"properties":{"id":"node/5493190130","name":"Basic-Fit","shop":"gym","address":{"housenumber":"17","street":"Rue Crozatier","postcode":"75012","city":"Paris"}}},{"type":"Feature","geometry":{"type":"Point","coordinates":[2.359809,48.874961]},"properties":{"id":"node/5516416122","name":"Flag","shop":"gym","address":{"housenumber":"29","street":"Rue des Récollets","postcode":"75010"}}},{"type":"Feature","geometry":{"type":"Point","coordinates":[2.333302,48.840178]},"properties":{"id":"node/5581316451","name":"Yoga Garden Rive Gauche","shop":"yoga","address":{"housenumber":"3","street":"Rue Campagne Première","postcode":"75014","city":"Paris"}}},{"type":"Feature","geometry":{"type":"Point","coordinates":[2.335529,48.827262]},"properties":{"id":"node/5582060594","name":"Roc 14","shop":"climbing","address":null}},{"type":"Feature","geometry":{"type":"Point","coordinates":[2.329337,48.879665]},"properties":{"id":"node/5769784154","name":"Neoness","shop":"gym","address":{"housenumber":"44","street":"Rue de Clichy","city":"Paris"}}},{"type":"Feature","geometry":{"type":"Point","coordinates":[2.392818,48.879137]},"properties":{"id":"node/5774481153","name":"Gigagym","shop":"gym","address":null}},{"type":"Feature","geometry":{"type":"Point","coordinates":[2.335414,48.843867]},"properties":{"id":"node/5838825485","name":"Grimpo6","shop":"climbing","address":{"street":"Rue Auguste Comte","postcode":"75006","city":"Paris"}}},{"type":"Feature","geometry":{"type":"Point","coordinates":[2.380417,48.846424]},"properties":{"id":"node/5856400138","name":"Fitness Park","shop":"gym","address":{"housenumber":"60","street":"Boulevard Diderot","postcode":"75012","city":"Paris"}}},{"type":"Feature","geometry":{"type":"Point","coordinates":[2.334577,48.88344]},"properties":{"id":"node/5932494586","name":"VPunch Gym","shop":"gym","address":{"housenumber":"62","street":"Boulevard de Clichy","postcode":"75018","city":"Paris"}}},{"type":"Feature","geometry":{"type":"Point","coordinates":[2.371927,48.865038]},"properties":{"id":"node/5934193657","name":"Athletic Planet","shop":"gym","address":null}},{"type":"Feature","geometry":{"type":"Point","coordinates":[2.374187,48.854991]},"properties":{"id":"node/6386811635","name":"Kalari 7","shop":"yoga","address":null}},{"type":"Feature","geometry":{"type":"Point","coordinates":[2.349764,48.879183]},"properties":{"id":"node/6487359885","name":"La Belle Equipe: Boxe, Coaching and other things","shop":"gym","address":{"housenumber":"14","street":"Rue d'Abbeville","postcode":"75010","city":"Paris"}}},{"type":"Feature","geometry":{"type":"Point","coordinates":[2.304274,48.88312]},"properties":{"id":"node/6536444888","name":"L'Espace Bikram Paris","shop":"gym","address":{"housenumber":"7","street":"Rue Meissonier","postcode":"75017","city":"Paris"}}},{"type":"Feature","geometry":{"type":"Point","coordinates":[2.400622,48.851408]},"properties":{"id":"node/6564654292","name":"Aqua Lady","shop":"gym","address":null}},{"type":"Feature","geometry":{"type":"Point","coordinates":[2.385924,48.883674]},"properties":{"id":"node/6591804483","name":"La Casa Del Tango","shop":"dance","address":null}},{"type":"Feature","geometry":{"type":"Point","coordinates":[2.378505,48.893103]},"properties":{"id":"node/6591804484","name":"Atelier Chorégraphique","shop":"dance","address":{"housenumber":"19","street":"Allée des Eiders"}}},{"type":"Feature","geometry":{"type":"Point","coordinates":[2.339379,48.851278]},"properties":{"id":"node/6594908085","name":"Sense Club","shop":"gym","address":null}},{"type":"Feature","geometry":{"type":"Point","coordinates":[2.381395,48.850104]},"properties":{"id":"node/6627255807","name":"School of Tropical Latin Dances","shop":"dance","address":null}},{"type":"Feature","geometry":{"type":"Point","coordinates":[2.354918,48.823092]},"properties":{"id":"node/6627255813","name":"École de Danse Clothilde Kieffert","shop":"dance","address":{"housenumber":"9","street":"Rue du Docteur Leray","postcode":"75013","city":"Paris"}}},{"type":"Feature","geometry":{"type":"Point","coordinates":[2.396311,48.842042]},"properties":{"id":"node/6627255815","name":"Paris Mambo - École de danse à Paris 12ème","shop":"dance","address":{"housenumber":"48","street":"Rue de la Gare de Reuilly","postcode":"75012","city":"Paris"}}},{"type":"Feature","geometry":{"type":"Point","coordinates":[2.348376,48.848031]},"properties":{"id":"node/6627255818","name":"École de Danse : Studio l'Envol","shop":"dance","address":{"housenumber":"34","street":"Rue de la Montagne Sainte-Geneviève","postcode":"75005","city":"Paris"}}},{"type":"Feature","geometry":{"type":"Point","coordinates":[2.336041,48.83852]},"properties":{"id":"node/6627255819","name":"La Danse Alain et Françoise Chantraine","shop":"dance","address":{"street":"68 Avenue Denfert-Rochereau, 75014 Paris"}}},{"type":"Feature","geometry":{"type":"Point","coordinates":[2.381355,48.853921]},"properties":{"id":"node/6627316530","name":"Théâtre de la Danse","shop":"dance","address":{"street":"77 Rue de Charonne, 75011 Paris"}}},{"type":"Feature","geometry":{"type":"Point","coordinates":[2.330022,48.869371]},"properties":{"id":"node/6627316533","name":"Éléphant Paname, Centre d'Art et de Danse","shop":"dance","address":{"street":"10 Rue Volney, 75002 Paris"}}},{"type":"Feature","geometry":{"type":"Point","coordinates":[2.393456,48.852966]},"properties":{"id":"node/6627316537","name":"Comme on danse !","shop":"dance","address":{"housenumber":"54","street":"Avenue Philippe Auguste"}}},{"type":"Feature","geometry":{"type":"Point","coordinates":[2.326866,48.842218]},"properties":{"id":"node/6627316538","name":"Académie de danse de Montparnasse","shop":"dance","address":null}},{"type":"Feature","geometry":{"type":"Point","coordinates":[2.36644,48.86816]},"properties":{"id":"node/6627316539","name":"Danse des 5 rythmes","shop":"dance","address":{"street":"18 Rue du Faubourg du Temple, 75011 Paris"}}},{"type":"Feature","geometry":{"type":"Point","coordinates":[2.325692,48.829124]},"properties":{"id":"node/6627316541","name":"DanseVie","shop":"dance","address":null}},{"type":"Feature","geometry":{"type":"Point","coordinates":[2.315996,48.84274]},"properties":{"id":"node/6627316544","name":"Centre pour l'Art, la Danse, l'ENseignement et la CulturE","shop":"dance","address":{"street":"78 Boulevard Raspail, 75006 Paris"}}},{"type":"Feature","geometry":{"type":"Point","coordinates":[2.4045,48.860067]},"properties":{"id":"node/6627316546","name":"Cours de Danse saint Blaise isabelle Klobukowski","shop":"dance","address":{"street":"5 Rue Saint-Blaise, 75020 Paris"}}},{"type":"Feature","geometry":{"type":"Point","coordinates":[2.34803,48.84393]},"properties":{"id":"node/6627316547","name":"Let's Dance Studio","shop":"dance","address":{"housenumber":"10","street":"Rue Tournefort","postcode":"75005","city":"Paris"}}},{"type":"Feature","geometry":{"type":"Point","coordinates":[2.353535,48.846978]},"properties":{"id":"node/6627316551","name":"Cours Tango Paris","shop":"dance","address":{"housenumber":"35","street":"Rue Jussieu","postcode":"75005","city":"Paris"}}},{"type":"Feature","geometry":{"type":"Point","coordinates":[2.317754,48.833378]},"properties":{"id":"node/6627316553","name":"Temps'Danse14","shop":"dance","address":{"street":"43 Rue des Thermopyles, 75014 Paris"}}},{"type":"Feature","geometry":{"type":"Point","coordinates":[2.361383,48.867134]},"properties":{"id":"node/6627316555","name":"Lazzarelli Frederic","shop":"dance","address":{"housenumber":"10","street":"10 Rue Notre-Dame-de-Nazareth, 75003 Paris","postcode":"75003","city":"Paris"}}},{"type":"Feature","geometry":{"type":"Point","coordinates":[2.325385,48.881664]},"properties":{"id":"node/6627316556","name":"Ludivine les Salons, école de danse","shop":"dance","address":null}},{"type":"Feature","geometry":{"type":"Point","coordinates":[2.390059,48.875508]},"properties":{"id":"node/6627316559","name":"Et Vie Danse","shop":"dance","address":null}},{"type":"Feature","geometry":{"type":"Point","coordinates":[2.328287,48.887466]},"properties":{"id":"node/6627316561","name":"Rencontres Internationales de Danse Contemporaine","shop":"dance","address":null}},{"type":"Feature","geometry":{"type":"Point","coordinates":[2.283779,48.8588]},"properties":{"id":"node/6627441910","name":"Académie de danse La Tour","shop":"dance","address":null}},{"type":"Feature","geometry":{"type":"Point","coordinates":[2.294097,48.881958]},"properties":{"id":"node/6627441911","name":"Première Danse","shop":"dance","address":null}},{"type":"Feature","geometry":{"type":"Point","coordinates":[2.395396,48.850902]},"properties":{"id":"node/6627441913","name":"Pole Dance Paris","shop":"dance","address":{"street":"111 Rue de Montreuil, 75011 Paris"}}},{"type":"Feature","geometry":{"type":"Point","coordinates":[2.332221,48.843778]},"properties":{"id":"node/6627441914","name":"École de danse contemporaine Isabelle Journiac","shop":"dance","address":{"street":"11 Avenue Vavin, 75006 Paris"}}},{"type":"Feature","geometry":{"type":"Point","coordinates":[2.332676,48.828406]},"properties":{"id":"node/6627441915","name":"Cap Kizomba","shop":"dance","address":{"street":"78 Rue de la Tombe Issoire, 75014 Paris"}}},{"type":"Feature","geometry":{"type":"Point","coordinates":[2.337123,48.884351]},"properties":{"id":"node/6627441935","name":"Studio de Danse des Abbesses","shop":"dance","address":{"housenumber":"8","street":"Rue Véron"}}},{"type":"Feature","geometry":{"type":"Point","coordinates":[2.319421,48.851616]},"properties":{"id":"node/6627441939","name":"académie franco américaine de danse","shop":"dance","address":{"housenumber":"39","street":"Rue de Babylone"}}},{"type":"Feature","geometry":{"type":"Point","coordinates":[2.362623,48.864212]},"properties":{"id":"node/6627441942","name":"Carreau du temple","shop":"dance","address":{"street":"2 Rue Perrée, 75003 Paris"}}},{"type":"Feature","geometry":{"type":"Point","coordinates":[2.358309,48.827941]},"properties":{"id":"node/6627441943","name":"Arc of the toi 90 7h n gd Italie","shop":"dance","address":null}},{"type":"Feature","geometry":{"type":"Point","coordinates":[2.35092,48.850302]},"properties":{"id":"node/6627441949","name":"Gérard Magdic","shop":"dance","address":null}},{"type":"Feature","geometry":{"type":"Point","coordinates":[2.402666,48.841857]},"properties":{"id":"node/6627441950","name":"Dojo Eric Pariset","shop":"martial_arts","address":null}},{"type":"Feature","geometry":{"type":"Point","coordinates":[2.35394,48.85962]},"properties":{"id":"node/6627441956","name":"Mickaël Bilionnière - Cours Hip Hop","shop":"dance","address":{"street":"41 Rue du Temple, 75004 Paris"}}},{"type":"Feature","geometry":{"type":"Point","coordinates":[2.340185,48.875096]},"properties":{"id":"node/672956260","name":"CMG Sports Club","shop":"gym","address":null}},{"type":"Feature","geometry":{"type":"Point","coordinates":[2.371546,48.83115]},"properties":{"id":"node/6840982600","name":"Centre Terre & Ciel","shop":"yoga","address":{"housenumber":"18","street":"Rue Charcot","postcode":"75013","city":"Paris"}}},{"type":"Feature","geometry":{"type":"Point","coordinates":[2.336561,48.868954]},"properties":{"id":"node/685907646","name":"Dynamo- Spinning","shop":"gym","address":null}},{"type":"Feature","geometry":{"type":"Point","coordinates":[2.328428,48.87747]},"properties":{"id":"node/6909677610","name":"CrossFit","shop":"gym","address":{"housenumber":"24","street":"Rue de Londres","postcode":"75009","city":"Paris"}}},{"type":"Feature","geometry":{"type":"Point","coordinates":[2.259271,48.851027]},"properties":{"id":"node/6943326863","name":null,"shop":"climbing","address":null}},{"type":"Feature","geometry":{"type":"Point","coordinates":[2.362853,48.87085]},"properties":{"id":"node/6949162391","name":"La Montgolfière","shop":"martial_arts","address":null}},{"type":"Feature","geometry":{"type":"Point","coordinates":[2.350035,48.859844]},"properties":{"id":"node/700256810","name":"L'Usine Beaubourg","shop":"gym","address":{"housenumber":"16-20","street":"Rue Quincampoix","postcode":"75004","city":"Paris"}}},{"type":"Feature","geometry":{"type":"Point","coordinates":[2.327931,48.870656]},"properties":{"id":"node/7038322685","name":"Neoness","shop":"gym","address":null}},{"type":"Feature","geometry":{"type":"Point","coordinates":[2.366646,48.85789]},"properties":{"id":"node/721443159","name":"Omm Studio","shop":"gym","address":{"housenumber":"12-14","street":"Rue Saint-Gilles","postcode":"75003","city":"Paris"}}},{"type":"Feature","geometry":{"type":"Point","coordinates":[2.324767,48.835658]},"properties":{"id":"node/7472967287","name":"Le temps du yoga","shop":"yoga","address":null}},{"type":"Feature","geometry":{"type":"Point","coordinates":[2.392005,48.868691]},"properties":{"id":"node/7512358402","name":"Centre Momboyé","shop":"dance","address":{"housenumber":"25","street":"Rue Boyer","postcode":"75020","city":"Paris"}}},{"type":"Feature","geometry":{"type":"Point","coordinates":[2.33785,48.854808]},"properties":{"id":"node/7527295256","name":"Elite Stimulation","shop":"gym","address":null}},{"type":"Feature","geometry":{"type":"Point","coordinates":[2.333389,48.867293]},"properties":{"id":"node/7724323985","name":"CrossFit","shop":"gym","address":{"housenumber":"31","street":"Avenue de l'Opéra","postcode":"75001","city":"Paris"}}},{"type":"Feature","geometry":{"type":"Point","coordinates":[2.319268,48.888272]},"properties":{"id":"node/7753007583","name":"Qee yoga pilate","shop":"gym","address":null}},{"type":"Feature","geometry":{"type":"Point","coordinates":[2.328516,48.848508]},"properties":{"id":"node/785722541","name":"Snake & Twist","shop":"pilates","address":null}},{"type":"Feature","geometry":{"type":"Point","coordinates":[2.354103,48.864881]},"properties":{"id":"node/7923610494","name":"Apollo Sporting Club","shop":"martial_arts","address":null}},{"type":"Feature","geometry":{"type":"Point","coordinates":[2.298687,48.849868]},"properties":{"id":"node/8129796300","name":"Ritm - La Motte Picquet","shop":"gym","address":null}},{"type":"Feature","geometry":{"type":"Point","coordinates":[2.3634,48.851996]},"properties":{"id":"node/8295997452","name":"KeepCool","shop":"gym","address":{"housenumber":"12","street":"Rue du Petit Musc","postcode":"75004","city":"Paris"}}},{"type":"Feature","geometry":{"type":"Point","coordinates":[2.310512,48.891189]},"properties":{"id":"node/8301096321","name":"Climbing District Batignolles","shop":"climbing","address":{"housenumber":"69","street":"Rue Mstislav Rostropovitch","postcode":"75017","city":"Paris"}}},{"type":"Feature","geometry":{"type":"Point","coordinates":[2.309139,48.872063]},"properties":{"id":"node/840927418","name":"Dynamo Spinning","shop":"gym","address":null}},{"type":"Feature","geometry":{"type":"Point","coordinates":[2.353436,48.848089]},"properties":{"id":"node/8450702349","name":"Storm cycling club","shop":"gym","address":null}},{"type":"Feature","geometry":{"type":"Point","coordinates":[2.354914,48.823079]},"properties":{"id":"node/8514412783","name":"Treize en danse","shop":"dance","address":null}},{"type":"Feature","geometry":{"type":"Point","coordinates":[2.347007,48.861475]},"properties":{"id":"node/8523499168","name":"Conservatoire Mozart","shop":"dance","address":null}},{"type":"Feature","geometry":{"type":"Point","coordinates":[2.395433,48.878365]},"properties":{"id":"node/8608463149","name":"Mur du gymnase des Lilas","shop":"climbing","address":{"housenumber":"5","street":"Rue des Lilas"}}},{"type":"Feature","geometry":{"type":"Point","coordinates":[2.294034,48.82759]},"properties":{"id":"node/8608536803","name":"ESC 15 escalade","shop":"climbing","address":{"street":"Rue du Général Guillaumat","postcode":"75015","city":"Paris"}}},{"type":"Feature","geometry":{"type":"Point","coordinates":[2.364768,48.820492]},"properties":{"id":"node/8608559350","name":"Gymnase de Choisy","shop":"climbing","address":{"housenumber":"4 bis","street":"Avenue de Choisy"}}},{"type":"Feature","geometry":{"type":"Point","coordinates":[2.380859,48.868346]},"properties":{"id":"node/8623309408","name":"Neoness","shop":"gym","address":{"housenumber":"25","street":"Boulevard de Belleville","postcode":"75011","city":"Paris"}}},{"type":"Feature","geometry":{"type":"Point","coordinates":[2.365088,48.873942]},"properties":{"id":"node/8640149094","name":"Battling Club","shop":"yoga","address":{"housenumber":"13","street":"Rue de la Grange aux Belles","postcode":"75010","city":"Paris"}}},{"type":"Feature","geometry":{"type":"Point","coordinates":[2.3245,48.885041]},"properties":{"id":"node/8662577766","name":"Studio aopa","shop":"yoga","address":null}},{"type":"Feature","geometry":{"type":"Point","coordinates":[2.40466,48.844531]},"properties":{"id":"node/8691092909","name":"Studio Move","shop":"gym","address":null}},{"type":"Feature","geometry":{"type":"Point","coordinates":[2.372821,48.866802]},"properties":{"id":"node/8756522928","name":"dynamo","shop":"gym","address":null}},{"type":"Feature","geometry":{"type":"Point","coordinates":[2.343791,48.879]},"properties":{"id":"node/8819008441","name":"La tour d'Auvergne","shop":"martial_arts","address":{"housenumber":"17","street":"Rue Louise-Émilie de La Tour d'Auvergne"}}},{"type":"Feature","geometry":{"type":"Point","coordinates":[2.312934,48.890107]},"properties":{"id":"node/8868495234","name":"Centre Sportif Alexandre Lippmann","shop":"martial_arts","address":null}},{"type":"Feature","geometry":{"type":"Point","coordinates":[2.337611,48.884121]},"properties":{"id":"node/8961442527","name":"Club Parisien de Self Défense","shop":"gym","address":{"housenumber":"22","street":"Rue André Antoine","postcode":"75018","city":"Paris"}}},{"type":"Feature","geometry":{"type":"Point","coordinates":[2.385697,48.832988]},"properties":{"id":"node/9044357052","name":"Le Triangle","shop":"climbing","address":{"housenumber":"24","street":"Rue François Truffaut","postcode":"75012","city":"Paris"}}},{"type":"Feature","geometry":{"type":"Point","coordinates":[2.372713,48.868562]},"properties":{"id":"node/9045433150","name":"Caminito","shop":"dance","address":{"housenumber":"1","street":"Rue Deguerry"}}},{"type":"Feature","geometry":{"type":"Point","coordinates":[2.320987,48.873864]},"properties":{"id":"node/9082433478","name":"Sport Impulse","shop":"gym","address":null}},{"type":"Feature","geometry":{"type":"Point","coordinates":[2.373414,48.881587]},"properties":{"id":"node/9213692464","name":"Climbing District Buttes-Chaumont","shop":"climbing","address":{"housenumber":"55","street":"Rue de Meaux","postcode":"75019","city":"Paris"}}},{"type":"Feature","geometry":{"type":"Point","coordinates":[2.376737,48.898383]},"properties":{"id":"node/9291170345","name":"Basic-Fit","shop":"gym","address":{"street":"Boulevard Macdonald","postcode":"75019","city":"Paris"}}},{"type":"Feature","geometry":{"type":"Point","coordinates":[2.286013,48.87499]},"properties":{"id":"node/938011740","name":"Surface","shop":"gym","address":null}},{"type":"Feature","geometry":{"type":"Point","coordinates":[2.280102,48.850439]},"properties":{"id":"node/9394086166","name":null,"shop":"climbing","address":null}},{"type":"Feature","geometry":{"type":"Point","coordinates":[2.280302,48.850314]},"properties":{"id":"node/9394086169","name":null,"shop":"climbing","address":null}},{"type":"Feature","geometry":{"type":"Point","coordinates":[2.368605,48.833502]},"properties":{"id":"node/9456207103","name":"Arkose Chevaleret","shop":"climbing","address":{"housenumber":"181","street":"Rue du Chevaleret","postcode":"75013","city":"Paris"}}},{"type":"Feature","geometry":{"type":"Point","coordinates":[2.38405,48.855233]},"properties":{"id":"node/9461541422","name":"On Air Paris Voltaire","shop":"gym","address":{"housenumber":"172","street":"Boulevard Voltaire","postcode":"75011","city":"Paris"}}},{"type":"Feature","geometry":{"type":"Point","coordinates":[2.3091,48.833354]},"properties":{"id":"node/9476702869","name":"Studio Coach In","shop":"yoga","address":null}},{"type":"Feature","geometry":{"type":"Point","coordinates":[2.325225,48.884686]},"properties":{"id":"node/9481321100","name":"inPulse Club","shop":"gym","address":null}},{"type":"Feature","geometry":{"type":"Point","coordinates":[2.350485,48.850905]},"properties":{"id":"node/9493817638","name":"École de danse Yoga Art thérapie","shop":"dance","address":null}},{"type":"Feature","geometry":{"type":"Point","coordinates":[2.330055,48.8924]},"properties":{"id":"node/9538439773","name":"KeepCool","shop":"gym","address":{"housenumber":"237","street":"Rue Marcadet","postcode":"75018","city":"Paris"}}},{"type":"Feature","geometry":{"type":"Point","coordinates":[2.317425,48.890893]},"properties":{"id":"node/9542944858","name":"Yoga Village","shop":"yoga","address":null}},{"type":"Feature","geometry":{"type":"Point","coordinates":[2.370592,48.854867]},"properties":{"id":"node/9556283217","name":"Body Hit","shop":"gym","address":null}},{"type":"Feature","geometry":{"type":"Point","coordinates":[2.367678,48.852545]},"properties":{"id":"node/9610342620","name":"Glow Up Studio","shop":"gym","address":{"housenumber":"46","street":"Boulevard Henri IV","postcode":"75004","city":"Paris"}}},{"type":"Feature","geometry":{"type":"Point","coordinates":[2.389068,48.841653]},"properties":{"id":"node/9652629892","name":"Vertical 12","shop":"climbing","address":{"street":"Rue Antoine-Julien Hénard","postcode":"75012","city":"Paris"}}},{"type":"Feature","geometry":{"type":"Point","coordinates":[2.392997,48.85424]},"properties":{"id":"node/9652670432","name":"Onze C+","shop":"climbing","address":{"housenumber":"68","street":"Avenue Philippe Auguste","postcode":"75011","city":"Paris"}}},{"type":"Feature","geometry":{"type":"Point","coordinates":[2.342797,48.82722]},"properties":{"id":"node/9652672480","name":"Cordée 13","shop":"climbing","address":null}},{"type":"Feature","geometry":{"type":"Point","coordinates":[2.364936,48.820856]},"properties":{"id":"node/9652684652","name":"Grimpe 13","shop":"climbing","address":{"street":"Avenue de Choisy","postcode":"75013","city":"Paris"}}},{"type":"Feature","geometry":{"type":"Point","coordinates":[2.411885,48.874242]},"properties":{"id":"node/9652688861","name":"Le Mur","shop":"climbing","address":{"street":"Rue Paul Meurice","postcode":"75020","city":"Paris"}}},{"type":"Feature","geometry":{"type":"Point","coordinates":[2.353249,48.875584]},"properties":{"id":"node/9652692741","name":"Faites le mur","shop":"climbing","address":{"street":"Rue Léon Schwartzenberg","postcode":"75010","city":"Paris"}}},{"type":"Feature","geometry":{"type":"Point","coordinates":[2.396728,48.893099]},"properties":{"id":"node/9652696905","name":"Cimes 19","shop":"climbing","address":{"street":"Route des Petits Ponts","postcode":"75019","city":"Paris"}}},{"type":"Feature","geometry":{"type":"Point","coordinates":[2.33291,48.877866]},"properties":{"id":"node/9652775587","name":"9apic","shop":"climbing","address":{"street":"Rue de la Tour des Dames","postcode":"75009","city":"Paris"}}},{"type":"Feature","geometry":{"type":"Point","coordinates":[2.295464,48.841746]},"properties":{"id":"node/9652780697","name":"ESC 15 escalade","shop":"climbing","address":{"street":"Rue de la Croix Nivert","postcode":"75015","city":"Paris"}}},{"type":"Feature","geometry":{"type":"Point","coordinates":[2.31162,48.896161]},"properties":{"id":"node/9733049784","name":"17e Degré","shop":"climbing","address":null}},{"type":"Feature","geometry":{"type":"Point","coordinates":[2.339566,48.842761]},"properties":{"id":"node/9735387512","name":"Escalad'Indoor","shop":"climbing","address":{"housenumber":"11","street":"Rue Henri Barbusse","postcode":"75005","city":"Paris"}}},{"type":"Feature","geometry":{"type":"Point","coordinates":[2.279947,48.856556]},"properties":{"id":"node/9748845447","name":"Smart Body","shop":"gym","address":null}},{"type":"Feature","geometry":{"type":"Point","coordinates":[2.367344,48.855096]},"properties":{"id":"node/9796100975","name":"Naya","shop":"yoga","address":{"housenumber":"26","street":"Rue des Tournelles","postcode":"75004","city":"Paris"}}},{"type":"Feature","geometry":{"type":"Point","coordinates":[2.382185,48.828252]},"properties":{"id":"node/9861508350","name":"Mon Stade","shop":"gym","address":{"housenumber":"1","street":"Rue Elsa Morante","postcode":"75013","city":"Paris"}}},{"type":"Feature","geometry":{"type":"Point","coordinates":[2.336439,48.87944]},"properties":{"id":"node/9864287771","name":"Nova Fitness","shop":"gym","address":null}},{"type":"Feature","geometry":{"type":"Point","coordinates":[2.373186,48.849197]},"properties":{"id":"node/9898423315","name":null,"shop":"gym","address":null}},{"type":"Feature","geometry":{"type":"Point","coordinates":[2.400158,48.86119]},"properties":{"id":"node/9904620779","name":"MyPilates","shop":"gym","address":{"housenumber":"189","street":"Rue des Pyrénées","postcode":"75020","city":"Paris"}}},{"type":"Feature","geometry":{"type":"Point","coordinates":[2.320984,48.846514]},"properties":{"id":"node/9922296589","name":"Tigre Yoga","shop":"gym","address":null}},{"type":"Feature","geometry":{"type":"Point","coordinates":[2.271047,48.850727]},"properties":{"id":"node/9946894617","name":"Ritm - La Fontaine","shop":"gym","address":{"housenumber":"56","street":"Rue Jean de la Fontaine","postcode":"75016","city":"Paris"}}},{"type":"Feature","geometry":{"type":"Point","coordinates":[2.373407,48.858523]},"properties":{"id":"node/9968346317","name":"R2 Training Bastille CrossFit","shop":"gym","address":{"housenumber":"30","street":"Rue du Chemin Vert","postcode":"75011","city":"Paris"}}},{"type":"Feature","geometry":{"type":"Point","coordinates":[2.373596,48.850318]},"properties":{"id":"node/9975208905","name":"Studio M'","shop":"dance","address":{"housenumber":"65","street":"Rue de Charenton","postcode":"75012","city":"Paris"}}},{"type":"Feature","geometry":{"type":"Point","coordinates":[2.309354,48.873277]},"properties":{"id":"node/9976500453","name":"C White","shop":"gym","address":null}},{"type":"Feature","geometry":{"type":"Point","coordinates":[2.316916,48.843562]},"properties":{"id":"node/9977851268","name":"Espace Falguière","shop":"yoga","address":null}},{"type":"Feature","geometry":{"type":"Point","coordinates":[2.380149,48.862501]},"properties":{"id":"node/9996025709","name":"Paris coach","shop":"gym","address":null}},{"type":"Feature","geometry":{"type":"Point","coordinates":[2.356182,48.836944]},"properties":{"id":"overture/001b9e13-921e-4f33-a26e-406aa71b4ce6","name":"Studio Pilates des Gobelins","shop":"pilates","address":{"street":"17 Rue du Jura","postcode":"75013","city":"Paris"}}},{"type":"Feature","geometry":{"type":"Point","coordinates":[2.389397,48.86449]},"properties":{"id":"overture/003a6bff-4f15-421b-903b-76ff05e42b14","name":"Liberty Gym","shop":"gym","address":{"street":"39 Rue des Amandiers","postcode":"75020","city":"Paris"}}},{"type":"Feature","geometry":{"type":"Point","coordinates":[2.224212,48.881628]},"properties":{"id":"overture/005cebfc-880e-4f07-aec8-430d0f29aee6","name":"Association Salsabeca danses","shop":"gym","address":{"street":"5 rue du Professeur Louis-René Nougier","postcode":"92150","city":"Suresnes"}}},{"type":"Feature","geometry":{"type":"Point","coordinates":[2.238879,48.844908]},"properties":{"id":"overture/00d4f1dd-4863-422b-b415-f348576f506c","name":"Tecfit Boulogne","shop":"gym","address":{"street":"62 Rue des Tilleuls","postcode":"92100","city":"Boulogne-Billancourt"}}},{"type":"Feature","geometry":{"type":"Point","coordinates":[2.32116,48.834447]},"properties":{"id":"overture/010c3e52-2312-40be-8835-e66d21d29f8b","name":"Adan","shop":"martial_arts","address":{"street":"5 Rue du Moulin des Lapins","postcode":"75014","city":"Paris"}}},{"type":"Feature","geometry":{"type":"Point","coordinates":[2.319155,48.85107]},"properties":{"id":"overture/0141efaf-1aaf-48b6-9296-1e85c4718e91","name":"Fédération Française de Hatha Yoga","shop":"yoga","address":{"street":"50 rue Vaneau","postcode":"75007","city":"Paris"}}},{"type":"Feature","geometry":{"type":"Point","coordinates":[2.39853,48.85857]},"properties":{"id":"overture/015a7a7a-3e6f-4bdd-ab0c-cc01c9ca8ed4","name":"Jardin Naturel Pierre-Emmanuel","shop":"gym","address":{"street":"120 Rue de la Réunion","postcode":"75020","city":"Paris"}}},{"type":"Feature","geometry":{"type":"Point","coordinates":[2.323266,48.845895]},"properties":{"id":"overture/01a3550a-8d8f-4060-991f-cbf4e6a8f7c3","name":"Shorinji Kempo Vaugirard","shop":"martial_arts","address":{"street":"87 Rue de Vaugirard","postcode":"75006","city":"Paris"}}},{"type":"Feature","geometry":{"type":"Point","coordinates":[2.297345,48.851705]},"properties":{"id":"overture/01ba77c8-5f37-4679-a060-3ca0e3e074ed","name":"École de Danse Nathalie Gustine","shop":"dance","address":{"street":"16 rue Dupleix","postcode":"75015","city":"Paris"}}},{"type":"Feature","geometry":{"type":"Point","coordinates":[2.388761,48.885004]},"properties":{"id":"overture/01e27ee9-f40d-4920-9c21-fd75abdb7032","name":"Gymnase Mairie de Paris Jules Ladoumegue","shop":"gym","address":{"street":"48 Rue d'Hautpoul","postcode":"75019","city":"Paris"}}},{"type":"Feature","geometry":{"type":"Point","coordinates":[2.368918,48.847279]},"properties":{"id":"overture/01f02628-39da-4694-88d7-4585bf501191","name":"Gymnases","shop":"gym","address":{"street":"242 Rue de Bercy","postcode":"75012","city":"Paris"}}},{"type":"Feature","geometry":{"type":"Point","coordinates":[2.38521,48.84236]},"properties":{"id":"overture/01f87957-f2a5-4254-bdc0-d12109fc6aef","name":"Simone Club","shop":"gym","address":{"street":"116 Avenue Daumesnil","postcode":"75012","city":"Paris"}}},{"type":"Feature","geometry":{"type":"Point","coordinates":[2.345012,48.831916]},"properties":{"id":"overture/0208f250-4a08-4720-84da-53db30cd49f8","name":"Cours Sarah Luc","shop":"dance","address":{"street":"21 Rue du Champ-de-l'Alouette","postcode":"75013","city":"Paris"}}},{"type":"Feature","geometry":{"type":"Point","coordinates":[2.312633,48.873537]},"properties":{"id":"overture/0224c85a-573a-4205-af46-08a1f73cfcf1","name":"Méditation Philippe Maugars","shop":"yoga","address":{"street":"58 rue la Boétie","postcode":"75008","city":"Paris"}}},{"type":"Feature","geometry":{"type":"Point","coordinates":[2.390908,48.880022]},"properties":{"id":"overture/02439b43-92b5-4c3b-9bf2-4a60b17a3d1c","name":"nrgympilates","shop":"pilates","address":{"street":"6 Rue de Mouzaïa","postcode":"75019","city":"Paris"}}},{"type":"Feature","geometry":{"type":"Point","coordinates":[2.353342,48.872982]},"properties":{"id":"overture/026e75ba-0b04-4055-bd5c-eba1e65c78cf","name":"Lacadanses","shop":"dance","address":{"street":"9 Rue des Petites Écuries","postcode":"75010","city":"Paris"}}},{"type":"Feature","geometry":{"type":"Point","coordinates":[2.331447,48.881714]},"properties":{"id":"overture/02aafc99-8717-454f-8b7a-6d52c15c85dc","name":"Ecole de danse Françoise Schneider","shop":"dance","address":{"street":"59 rue Blanche","postcode":"75009","city":"Paris"}}},{"type":"Feature","geometry":{"type":"Point","coordinates":[2.463271,48.889919]},"properties":{"id":"overture/02de855e-053f-4398-9efc-4bd6b76ba2a0","name":"Association NXC Trainers","shop":"gym","address":{"street":"141 Rue Denfert-Rochereau","postcode":"93130","city":"Noisy-le-Sec"}}},{"type":"Feature","geometry":{"type":"Point","coordinates":[2.294872,48.841403]},"properties":{"id":"overture/03044143-953e-489d-a0b2-dac502f32eaf","name":"Striking Paris Xv","shop":"martial_arts","address":{"street":"36 Rue de l'Abbé Groult","postcode":"75015","city":"Paris"}}},{"type":"Feature","geometry":{"type":"Point","coordinates":[2.25982,48.886969]},"properties":{"id":"overture/030d71b5-d420-4998-88da-40ebae55f562","name":"École de Danse Anne Couzinet","shop":"dance","address":{"street":"21 rue Paul Chatrousse","postcode":"92200","city":"Neuilly-sur-Seine"}}},{"type":"Feature","geometry":{"type":"Point","coordinates":[2.347373,48.886589]},"properties":{"id":"overture/030e7464-e07f-495a-9d6a-7a76d5ec0e4a","name":"Gada Fitness","shop":"gym","address":{"street":"45 Rue de Clignancourt","postcode":"75018","city":"Paris"}}},{"type":"Feature","geometry":{"type":"Point","coordinates":[2.3696,48.825627]},"properties":{"id":"overture/032b4a5e-9a6d-4a30-b969-69390b63069e","name":"Pole & Dance","shop":"dance","address":{"street":"54 Rue du Château-des-Rentiers","postcode":"75013","city":"Paris"}}},{"type":"Feature","geometry":{"type":"Point","coordinates":[2.304644,48.824367]},"properties":{"id":"overture/0340d241-2971-4971-beac-2ffacc36066d","name":"Gymnase Jacques Duclos","shop":"gym","address":{"street":"1 Rue Ernest Renan","postcode":"92240","city":"Malakoff"}}},{"type":"Feature","geometry":{"type":"Point","coordinates":[2.301904,48.857252]},"properties":{"id":"overture/03660e23-da53-4a39-b731-3cb0443bed29","name":"Aura Pilates","shop":"pilates","address":{"street":"14B Rue Augereau","postcode":"75007","city":"Paris"}}},{"type":"Feature","geometry":{"type":"Point","coordinates":[2.399841,48.869855]},"properties":{"id":"overture/03767ea8-ef87-41bc-8c9c-1a5f80a8576c","name":"Karate Club Paris Pelleport","shop":"martial_arts","address":{"street":"93 Rue Pelleport","postcode":"75020","city":"Paris"}}},{"type":"Feature","geometry":{"type":"Point","coordinates":[2.36614,48.86289]},"properties":{"id":"overture/03aabd11-a17c-41af-b8ef-481200cd387b","name":"The Yoga Factory","shop":"yoga","address":{"street":"21 Rue des Filles du Calvaire","postcode":"75003","city":"Paris"}}},{"type":"Feature","geometry":{"type":"Point","coordinates":[2.383958,48.81623]},"properties":{"id":"overture/0455274c-24ee-4a63-8a92-90ba1e8c43d4","name":"Kajukenbo Ivry-sur-seine Fanling 94","shop":"gym","address":{"street":"29 Rue Ledru-Rollin","postcode":"94200","city":"Ivry-sur-Seine"}}},{"type":"Feature","geometry":{"type":"Point","coordinates":[2.34817,48.824854]},"properties":{"id":"overture/0456eec4-bcea-4339-9535-7379560b0e69","name":"Les Cercles de la Forme","shop":"gym","address":{"housenumber":"13","street":"13 Rue Guyton-de-Morveau","postcode":"75013","city":"Paris"}}},{"type":"Feature","geometry":{"type":"Point","coordinates":[2.242493,48.881998]},"properties":{"id":"overture/049d0d66-f019-4b71-b035-2f21d8ea23b8","name":"Gymnase Des Pavillons","shop":"gym","address":{"street":"3 Rue de l'Abbé Maurice Guibert","postcode":"92800","city":"Puteaux"}}},{"type":"Feature","geometry":{"type":"Point","coordinates":[2.269198,48.821871]},"properties":{"id":"overture/04f8479f-8631-4deb-8a68-a531f7fdf82b","name":"TimeSport Issy-les-Moulineaux","shop":"gym","address":{"street":"11 Rue Telles de la Poterie","postcode":"92130","city":"Issy-les-Moulineaux"}}},{"type":"Feature","geometry":{"type":"Point","coordinates":[2.39261,48.865287]},"properties":{"id":"overture/04f95aa3-8399-4b3f-9637-3db62213c19c","name":"Centre Bhagvati","shop":"yoga","address":{"street":"49 Rue des Partants","postcode":"75020","city":"Paris"}}},{"type":"Feature","geometry":{"type":"Point","coordinates":[2.346675,48.896235]},"properties":{"id":"overture/05457ee0-14aa-41b8-9793-e906a55c493a","name":"Espace Du Aime","shop":"yoga","address":{"street":"1 Passage Duhesme","postcode":"75018","city":"Paris"}}},{"type":"Feature","geometry":{"type":"Point","coordinates":[2.318503,48.844307]},"properties":{"id":"overture/056187a4-a877-4b34-8a5f-2aa880538406","name":"Gym Suédoise Mont Tonnerre","shop":"gym","address":{"street":"2b Vil du Mont Tonnerre","postcode":"75015","city":"Paris"}}},{"type":"Feature","geometry":{"type":"Point","coordinates":[2.359685,48.899219]},"properties":{"id":"overture/05c5cfb1-2b20-4947-9629-c52094525461","name":"Association Nationale de Tir de la Police","shop":"gym","address":{"street":"56 Boulevard Ney","postcode":"75018","city":"Paris"}}},{"type":"Feature","geometry":{"type":"Point","coordinates":[2.394002,48.869784]},"properties":{"id":"overture/05ccd0ee-dd84-4ff5-8679-4237e086f34f","name":"Coopyr Sport Boxing","shop":"martial_arts","address":{"street":"114 Rue de Ménilmontant","postcode":"75020","city":"Paris"}}},{"type":"Feature","geometry":{"type":"Point","coordinates":[2.34972,48.8608]},"properties":{"id":"overture/05ed9af0-a001-4cef-b84e-775da94e6685","name":"Antoine Krav Maga","shop":"martial_arts","address":{"street":"26 Boulevard de Sébastopol","postcode":"75004","city":"Paris"}}},{"type":"Feature","geometry":{"type":"Point","coordinates":[2.326547,48.824904]},"properties":{"id":"overture/05f42993-1fbd-425b-8a9f-8dfbd7400721","name":"Dansomania","shop":"dance","address":{"street":"59 Rue Sarrette","postcode":"75014","city":"Paris"}}},{"type":"Feature","geometry":{"type":"Point","coordinates":[2.284666,48.868462]},"properties":{"id":"overture/06041cf9-7ef0-4071-a078-f6fa0dc0ccca","name":"Parthenon Académie de Danses Grecques","shop":"dance","address":{"street":"9 Rue Mesnil","postcode":"75116","city":"Paris"}}},{"type":"Feature","geometry":{"type":"Point","coordinates":[2.32987,48.881276]},"properties":{"id":"overture/06399ffb-c84c-4c07-9486-3d5ea76c3b75","name":"Tutu, Pointes & Co.","shop":"dance","address":{"street":"11 Rue du Cardinal Mercier","postcode":"75009","city":"Paris"}}},{"type":"Feature","geometry":{"type":"Point","coordinates":[2.381558,48.83769]},"properties":{"id":"overture/064013e9-288a-448e-a446-8ae923029283","name":"Active Room","shop":"gym","address":{"street":"6 Place Léonard Bernstein","postcode":"75012","city":"Paris"}}},{"type":"Feature","geometry":{"type":"Point","coordinates":[2.291005,48.875968]},"properties":{"id":"overture/065282cb-4f17-428d-a597-c03d2e925a40","name":"Home Yoga Paris - Paris 17","shop":"yoga","address":{"street":"8 Rue des Acacias","postcode":"75017","city":"Paris"}}},{"type":"Feature","geometry":{"type":"Point","coordinates":[2.434321,48.856642]},"properties":{"id":"overture/065f8217-61b4-47cf-9c82-ec3857985bfc","name":"Kt Fitness","shop":"gym","address":{"street":"13B Rue du Colonel Raynal","postcode":"93100","city":"Montreuil"}}},{"type":"Feature","geometry":{"type":"Point","coordinates":[2.348213,48.824841]},"properties":{"id":"overture/0675d250-09b1-463b-9bb2-30cb6402931a","name":"Salle de sport Paris 13","shop":"gym","address":{"street":"13 rue Guyton de Morveau","postcode":"75013","city":"Paris"}}},{"type":"Feature","geometry":{"type":"Point","coordinates":[2.334675,48.882447]},"properties":{"id":"overture/06ece538-6c98-4966-b3a9-a16175bbc471","name":"Barbara Silvestre Accambray","shop":"dance","address":{"street":"Espace Fontaine, 9 Rue Fromentin","postcode":"75009","city":"Paris"}}},{"type":"Feature","geometry":{"type":"Point","coordinates":[2.356269,48.862215]},"properties":{"id":"overture/0752a466-3164-403a-b7af-4e8c08d767c4","name":"Tous En Scène Ballet School Paris 3","shop":"dance","address":{"street":"14 Rue Michel Le Comte","postcode":"75003","city":"Paris"}}},{"type":"Feature","geometry":{"type":"Point","coordinates":[2.398502,48.81578]},"properties":{"id":"overture/079bb244-6456-4613-ae66-bbec3863dd8a","name":"Ivry Boxing Club - Ekiboxe","shop":"martial_arts","address":{"street":"16 Rue Pierre Galais","postcode":"94200","city":"Ivry-sur-Seine"}}},{"type":"Feature","geometry":{"type":"Point","coordinates":[2.33183,48.86937]},"properties":{"id":"overture/07bd0c43-0e60-4baf-8fe1-ac1d210dcf4b","name":"Bachatime Vendome","shop":"dance","address":{"street":"9 Rue Daunou","postcode":"75002","city":"Paris"}}},{"type":"Feature","geometry":{"type":"Point","coordinates":[2.36456,48.83037]},"properties":{"id":"overture/0801bee3-b9ac-40e8-9f66-417d039acc65","name":"Mer de Sable Ermenonville","shop":"gym","address":{"street":"Rue Nationale","postcode":"75013","city":"Paris"}}},{"type":"Feature","geometry":{"type":"Point","coordinates":[2.25658,48.832542]},"properties":{"id":"overture/08085bdc-34f7-4375-bd37-6ef9d80c13c3","name":"Gavroche Fitness","shop":"gym","address":{"street":"29 Rue des Peupliers","postcode":"92100","city":"Boulogne-Billancourt"}}},{"type":"Feature","geometry":{"type":"Point","coordinates":[2.315438,48.894281]},"properties":{"id":"overture/080ae32c-d253-48b0-8ad0-2c864c51b3b5","name":"Centre Sportif Fragonard","shop":"gym","address":{"street":"10 Rue Fragonard","postcode":"75017","city":"Paris"}}},{"type":"Feature","geometry":{"type":"Point","coordinates":[2.233428,48.829007]},"properties":{"id":"overture/081091fa-c959-4dcd-b26f-2cbb50385643","name":"Arkose Pont de Sèvres","shop":"climbing","address":{"street":"177 Allée du Forum","postcode":"92100","city":"Boulogne-Billancourt"}}},{"type":"Feature","geometry":{"type":"Point","coordinates":[2.380193,48.896151]},"properties":{"id":"overture/082036d9-697b-46cb-9f1c-44ce05ce51c0","name":"Societe des Villages de Vacances","shop":"gym","address":{"street":"Villages Nature Hébergements I, 11 Rue de Cambrai","postcode":"75019","city":"Paris"}}},{"type":"Feature","geometry":{"type":"Point","coordinates":[2.287448,48.833933]},"properties":{"id":"overture/08445ca1-be0a-4d2e-b2ee-13dd267e05af","name":"Salle de sport Paris 15","shop":"gym","address":{"street":"31 rue du Hameau","postcode":"75015","city":"Paris"}}},{"type":"Feature","geometry":{"type":"Point","coordinates":[2.29863,48.83649]},"properties":{"id":"overture/085eb476-3da4-4b82-ab6e-b9c2c042f88c","name":"Brooklyn Fitboxing Convention","shop":"gym","address":{"street":"218 Rue de la Convention","postcode":"75015","city":"Paris"}}},{"type":"Feature","geometry":{"type":"Point","coordinates":[2.333854,48.854925]},"properties":{"id":"overture/08c1e687-0266-43bc-be4d-1db23632e3b4","name":"Bandha Yoga","shop":"yoga","address":{"street":"31 Rue Bonaparte","postcode":"75006","city":"Paris"}}},{"type":"Feature","geometry":{"type":"Point","coordinates":[2.404765,48.860365]},"properties":{"id":"overture/08dc405d-6e97-4a4a-8a46-902a9e30ce0f","name":"La Bourrée de Paris","shop":"dance","address":{"street":"124 Rue de Bagnolet","postcode":"75020","city":"Paris"}}},{"type":"Feature","geometry":{"type":"Point","coordinates":[2.321393,48.900055]},"properties":{"id":"overture/090ff739-c16a-45f6-9685-435946fd8df9","name":"LE FIVE Paris 17","shop":"gym","address":{"street":"26 Rue Hélène et François Missoffe","postcode":"75017","city":"Paris"}}},{"type":"Feature","geometry":{"type":"Point","coordinates":[2.318572,48.885607]},"properties":{"id":"overture/0938228e-de59-446e-813a-62d6a47a596d","name":"Mama Yoga","shop":"yoga","address":{"street":"60 Rue Boursault","postcode":"75017","city":"Paris"}}},{"type":"Feature","geometry":{"type":"Point","coordinates":[2.297903,48.878507]},"properties":{"id":"overture/09918133-81f1-4d7f-b2c0-52a716f09f91","name":"Studio Beatrice Laurent","shop":"pilates","address":{"street":"9 Place des Ternes","postcode":"75017","city":"Paris"}}},{"type":"Feature","geometry":{"type":"Point","coordinates":[2.292998,48.849849]},"properties":{"id":"overture/0a209189-a9c1-49a6-bbc1-928ff7dbfe21","name":"Neoness","shop":"gym","address":{"street":"18 Rue Juge","postcode":"75015","city":"Paris"}}},{"type":"Feature","geometry":{"type":"Point","coordinates":[2.371362,48.832425]},"properties":{"id":"overture/0abee7d1-f09c-43bf-9706-32bab56cdd66","name":"Core Yoga Paris","shop":"yoga","address":{"street":"151 Rue du Chevaleret","postcode":"75013","city":"Paris"}}},{"type":"Feature","geometry":{"type":"Point","coordinates":[2.289272,48.889023]},"properties":{"id":"overture/0aeb3464-c759-42dd-8498-5c962eef95dd","name":"Magic Form","shop":"gym","address":{"street":"12 Rue Carnot","postcode":"92300","city":"Levallois-Perret"}}},{"type":"Feature","geometry":{"type":"Point","coordinates":[2.315442,48.888606]},"properties":{"id":"overture/0b1f76b2-7381-4b13-80b0-9b84e4f30d30","name":"Fitness Park","shop":"gym","address":{"street":"147 bis rue Cardinet","postcode":"75017","city":"Paris"}}},{"type":"Feature","geometry":{"type":"Point","coordinates":[2.26827,48.82249]},"properties":{"id":"overture/0b31ceea-1b59-4ffe-a196-fd548d4f74e4","name":"lestudio.yoga","shop":"yoga","address":{"street":"16 Rue Telles de la Poterie","postcode":"92130","city":"Issy-les-Moulineaux"}}},{"type":"Feature","geometry":{"type":"Point","coordinates":[2.290734,48.883775]},"properties":{"id":"overture/0ba76817-3fff-44d1-abfc-8101f2aa567c","name":"Agophore Institut","shop":"gym","address":{"street":"13 Rue Vernier","postcode":"75017","city":"Paris"}}},{"type":"Feature","geometry":{"type":"Point","coordinates":[2.313736,48.877962]},"properties":{"id":"overture/0bb385fc-27a0-44af-91df-e9e0fed657f7","name":"KeepCool","shop":"gym","address":{"street":"30 Rue de Lisbonne","postcode":"75008","city":"Paris"}}},{"type":"Feature","geometry":{"type":"Point","coordinates":[2.344459,48.867834]},"properties":{"id":"overture/0c1c2da8-57a5-4aba-ba1c-e7801bd3ad57","name":"KORE Réaumur","shop":"gym","address":{"street":"103 Rue Réaumur","postcode":"75002","city":"Paris"}}},{"type":"Feature","geometry":{"type":"Point","coordinates":[2.279492,48.894969]},"properties":{"id":"overture/0c45a9aa-6a08-4300-b7cf-9702d9a005db","name":"ON AIR","shop":"gym","address":{"street":"140 Rue Danton","postcode":"92300","city":"Levallois-Perret"}}},{"type":"Feature","geometry":{"type":"Point","coordinates":[2.439686,48.860313]},"properties":{"id":"overture/0c56ea12-f0d5-4928-89ac-d8e4eaf4ef16","name":"Danses Montreuil","shop":"dance","address":{"street":"22 Rue Victor Hugo","postcode":"93100","city":"Montreuil"}}},{"type":"Feature","geometry":{"type":"Point","coordinates":[2.339763,48.892699]},"properties":{"id":"overture/0ca81fa6-300c-489d-a1d4-833e04a5d49e","name":"L'Appart Fitness","shop":"gym","address":{"street":"17 Rue des Cloys","postcode":"75018","city":"Paris"}}},{"type":"Feature","geometry":{"type":"Point","coordinates":[2.35721,48.83094]},"properties":{"id":"overture/0cab0d3a-0d03-492f-bc2e-ea7534dd0135","name":"Wing Chun School Paris 13","shop":"martial_arts","address":{"street":"209 Boulevard Vincent Auriol","city":"Paris"}}},{"type":"Feature","geometry":{"type":"Point","coordinates":[2.401452,48.888021]},"properties":{"id":"overture/0cdd634e-94f4-40fa-a125-6fe6c3a7b511","name":"Gymnase Nodier","shop":"gym","address":{"street":"48 Rue de Stalingrad","postcode":"93310","city":"Le Pré-Saint-Gervais"}}},{"type":"Feature","geometry":{"type":"Point","coordinates":[2.416643,48.842383]},"properties":{"id":"overture/0d04f0b4-9176-42da-aa57-1cc1c9ee8d0a","name":"Gymnasium André Benzoni","shop":"gym","address":{"street":"17 Rue 1ère Division Française Libre","postcode":"94160","city":"Saint-Mandé"}}},{"type":"Feature","geometry":{"type":"Point","coordinates":[2.337036,48.895361]},"properties":{"id":"overture/0d2d9d45-fa35-4882-a9ec-ef58884b1b29","name":"Ayurveda Ayuryoga","shop":"yoga","address":{"street":"136 Rue Championnet","postcode":"75018","city":"Paris"}}},{"type":"Feature","geometry":{"type":"Point","coordinates":[2.44266,48.86453]},"properties":{"id":"overture/0d38d666-859c-4da7-9ae4-04372eb2e3d1","name":"Art’en Danse Company","shop":"dance","address":{"street":"14 Rue de la Révolution","postcode":"93100","city":"Montreuil"}}},{"type":"Feature","geometry":{"type":"Point","coordinates":[2.260922,48.838427]},"properties":{"id":"overture/0d3eaf3c-b975-4a3f-831d-393e77217bab","name":"Aqua Loft 16","shop":"gym","address":{"street":"31 rue le marois","postcode":"75016","city":"Paris"}}},{"type":"Feature","geometry":{"type":"Point","coordinates":[2.350805,48.861558]},"properties":{"id":"overture/0d68e13b-c00d-491d-9ed5-1801ec45112d","name":"Le Cercle Boxing","shop":"gym","address":{"street":"60 Rue Quincampoix","postcode":"75004","city":"Paris"}}},{"type":"Feature","geometry":{"type":"Point","coordinates":[2.39517,48.875124]},"properties":{"id":"overture/0de97a97-7dcb-4033-9bb6-3b8ed5d1804c","name":"Studio Le Regard du Cygne","shop":"dance","address":{"street":"210 rue de Belleville","postcode":"75020","city":"Paris"}}},{"type":"Feature","geometry":{"type":"Point","coordinates":[2.427842,48.841864]},"properties":{"id":"overture/0ded9e07-e2ac-47a3-9db7-ef6362bd99de","name":"Stade des Minimes","shop":"gym","address":{"street":"62 Avenue des Minimes","postcode":"75012","city":"Paris"}}},{"type":"Feature","geometry":{"type":"Point","coordinates":[2.375546,48.872702]},"properties":{"id":"overture/0effd198-dc2d-4044-b699-3b105ad9439b","name":"Association Française de Shuai Jiao A.F.S.J","shop":"martial_arts","address":{"street":"6 rue Civiale","postcode":"75010","city":"Paris"}}},{"type":"Feature","geometry":{"type":"Point","coordinates":[2.316218,48.822734]},"properties":{"id":"overture/0f019678-5190-476e-a56c-e462b1882f17","name":"Tam Vo Dao Paris 14","shop":"martial_arts","address":{"street":"25 Avenue de la Porte de Châtillon","postcode":"75014","city":"Paris"}}},{"type":"Feature","geometry":{"type":"Point","coordinates":[2.449362,48.837566]},"properties":{"id":"overture/0f097bfc-293b-4e79-8750-5aba0d2b986e","name":"Accrobranche","shop":"climbing","address":{"street":"Parc Floral, 2 Cours des Maréchaux","postcode":"75012","city":"Paris"}}},{"type":"Feature","geometry":{"type":"Point","coordinates":[2.337095,48.866324]},"properties":{"id":"overture/0f4f8564-772a-4a2b-abf3-536443b72bc3","name":"Reformation Pilates","shop":"pilates","address":{"street":"47 Rue de Richelieu","postcode":"75001","city":"Paris"}}},{"type":"Feature","geometry":{"type":"Point","coordinates":[2.400438,48.818357]},"properties":{"id":"overture/0f8e06d4-00d3-4a52-8e53-ff56d37e87c8","name":"CrossFit Nakama","shop":"gym","address":{"street":"3 Allée de la Seine","postcode":"94200","city":"Ivry-sur-Seine"}}},{"type":"Feature","geometry":{"type":"Point","coordinates":[2.345177,48.850816]},"properties":{"id":"overture/0f9eb8fb-81e9-4dca-ba74-6ff3f0674498","name":"RITM Saint Germain","shop":"gym","address":{"street":"71 Boulevard Saint-Germain","postcode":"75005","city":"Paris"}}},{"type":"Feature","geometry":{"type":"Point","coordinates":[2.415535,48.843587]},"properties":{"id":"overture/0fa0bce9-9317-4d0c-a96d-0efbeaa74790","name":"100 Pourcent Krav Maga","shop":"martial_arts","address":{"street":"10 Rue Mongenot","postcode":"94160","city":"Saint-Mandé"}}},{"type":"Feature","geometry":{"type":"Point","coordinates":[2.329783,48.87883]},"properties":{"id":"overture/0fb65641-5246-46ad-990a-4d1c4cf7cab1","name":"Fédération Française de Green Yoga","shop":"yoga","address":{"street":"24 Rue de Clichy","postcode":"75009","city":"Paris"}}},{"type":"Feature","geometry":{"type":"Point","coordinates":[2.279453,48.844006]},"properties":{"id":"overture/100e5f9c-ce7e-400c-a5bb-63c0f8581746","name":"J2a judo","shop":"martial_arts","address":{"street":"8 Rue Léontine","postcode":"75015","city":"Paris"}}},{"type":"Feature","geometry":{"type":"Point","coordinates":[2.323231,48.845949]},"properties":{"id":"overture/101aedee-bc18-498d-a86c-9b145c9a8cf9","name":"Mulvabé Danse","shop":"dance","address":{"street":"87 Rue de Vaugirard","postcode":"75006","city":"Paris"}}},{"type":"Feature","geometry":{"type":"Point","coordinates":[2.403566,48.834207]},"properties":{"id":"overture/101ed520-2019-491d-8f32-8c1d1407e5b6","name":"MMA Factory Paris","shop":"gym","address":{"street":"91 Boulevard Poniatowski","postcode":"75012","city":"Paris"}}},{"type":"Feature","geometry":{"type":"Point","coordinates":[2.35544,48.867642]},"properties":{"id":"overture/10610786-927a-4326-ae04-d653a635ffa7","name":"centre de yoga du Marais","shop":"yoga","address":{"street":"72 rue du Vertbois","postcode":"75003","city":"Paris"}}},{"type":"Feature","geometry":{"type":"Point","coordinates":[2.326009,48.824262]},"properties":{"id":"overture/10739f68-1f61-44f9-9a23-a67d325f57a1","name":"Cercle Parisien Jeet Kune Do et Kali","shop":"martial_arts","address":{"street":"119 Avenue du Général Leclerc","postcode":"75014","city":"Paris"}}},{"type":"Feature","geometry":{"type":"Point","coordinates":[2.404126,48.888448]},"properties":{"id":"overture/107ac4c0-861a-45eb-b788-10fae36d883c","name":"Yoga Intégral Pantin","shop":"yoga","address":{"street":"3 rue Gutenberg","postcode":"93500","city":"Pantin"}}},{"type":"Feature","geometry":{"type":"Point","coordinates":[2.252382,48.82041]},"properties":{"id":"overture/10888fbf-fd1d-4fcc-8d8e-a70415d5e5f4","name":"BMTC Biga Muay Thai Club","shop":"martial_arts","address":{"street":"Centre commercial des trois moulins Salle Philippe Riboud, Esp. Raoul Follereau","postcode":"92130","city":"Issy-les-Moulineaux"}}},{"type":"Feature","geometry":{"type":"Point","coordinates":[2.348323,48.848078]},"properties":{"id":"overture/108e5861-3ddf-448a-9e23-64266c075ff2","name":"Académie Pascal Plée","shop":"martial_arts","address":{"street":"34 Rue de la Montagne Sainte-Geneviève","postcode":"75005","city":"Paris"}}},{"type":"Feature","geometry":{"type":"Point","coordinates":[2.292592,48.87723]},"properties":{"id":"overture/10edb161-765c-41e9-ad37-2870dd6cfc4e","name":"One Trainer","shop":"gym","address":{"street":"40 Rue des Acacias","postcode":"75017","city":"Paris"}}},{"type":"Feature","geometry":{"type":"Point","coordinates":[2.34432,48.875694]},"properties":{"id":"overture/11539ea7-ffc8-4a83-a71c-6f4ec06e6a5f","name":"Antoni Charles","shop":"yoga","address":{"street":"25 rue Saulnier","postcode":"75009","city":"Paris"}}},{"type":"Feature","geometry":{"type":"Point","coordinates":[2.401963,48.839739]},